time,des_surge,act_surge,des_sway,act_sway,des_heave,act_heave,des_roll,act_roll,des_pitch,act_pitch,des_yaw,act_yaw,wrench_surge,wrench_sway,wrench_heave,wrench_roll,wrench_pitch,wrench_yaw,err_surge,err_sway,err_heave,err_roll,err_pitch,err_yaw,ref_surge,ref_sway,ref_heave,ref_roll,ref_pitch,ref_yaw,kx_surge,kx_sway,kx_heave,kx_roll,kx_pitch,kx_yaw
0,0.5,0.00495025,0,0,-0.3,-0.004433,0,0,0,0,0.3,0.004433,13.3657,0,-11.9691,0,0,0.938024,0.49505,0,-0.295567,0,0,0.295567,0.00497508,0,-0.00446642,0,0,0.00446642,0,0,0,0,0,0
0.01,0.5,0.00980244,0,0,-0.3,-0.00879384,0,0,0,0,0.3,0.00878041,13.2521,0,-12.1724,0,0,0.928393,0.490198,0,-0.291206,0,0,0.29122,0.00985141,0,-0.00885974,0,0,0.00884654,1.2131e-07,0,8.83068e-07,0,0,5.86957e-08
0.02,0.5,0.0145585,0,0,-0.3,-0.0130837,0,0,0,0,0.3,0.0130439,13.1444,0,-12.3775,0,0,0.919254,0.485441,0,-0.286916,0,0,0.286956,0.0146309,0,-0.0131812,0,0,0.013142,3.57959e-07,0,2.6191e-06,0,0,1.73585e-07
0.03,0.5,0.0192204,0,0,-0.3,-0.0173037,0,0,0,0,0.3,0.017225,13.0423,0,-12.5844,0,0,0.910584,0.48078,0,-0.282696,0,0,0.282775,0.0193156,0,-0.0174319,0,0,0.0173545,7.04219e-07,0,5.17876e-06,0,0,3.42265e-07
0.04,0.5,0.0237899,0,0,-0.3,-0.021455,0,0,0,0,0.3,0.0213254,12.9457,0,-12.7928,0,0,0.902364,0.47621,0,-0.278545,0,0,0.278675,0.0239072,0,-0.021613,0,0,0.0214856,1.1546e-06,0,8.53348e-06,0,0,5.62427e-07
0.05,0.5,0.028269,0,0,-0.3,-0.0255388,0,0,0,0,0.3,0.0253466,12.8542,0,-13.0026,0,0,0.894573,0.471731,0,-0.274461,0,0,0.274653,0.0284077,0,-0.0257257,0,0,0.0255369,1.70382e-06,0,1.26554e-05,0,0,8.31853e-07
0.06,0.5,0.0326593,0,0,-0.3,-0.0295561,0,0,0,0,0.3,0.0292902,12.7676,0,-13.2136,0,0,0.887193,0.467341,0,-0.270444,0,0,0.27071,0.0328188,0,-0.0297711,0,0,0.0295099,2.34684e-06,0,1.75175e-05,0,0,1.14842e-06
0.07,0.5,0.0369626,0,0,-0.3,-0.033508,0,0,0,0,0.3,0.0331576,12.6858,0,-13.4255,0,0,0.880207,0.463037,0,-0.266492,0,0,0.266842,0.0371424,0,-0.0337503,0,0,0.0334062,3.0788e-06,0,2.30932e-05,0,0,1.51007e-06
0.08,0.5,0.0411807,0,0,-0.3,-0.0373956,0,0,0,0,0.3,0.0369504,12.6085,0,-13.6384,0,0,0.873597,0.458819,0,-0.262604,0,0,0.26305,0.0413801,0,-0.0376643,0,0,0.0372272,3.89506e-06,0,2.93568e-05,0,0,1.91484e-06
0.09,0.5,0.0453153,0,0,-0.3,-0.04122,0,0,0,0,0.3,0.0406699,12.5354,0,-13.8519,0,0,0.867347,0.454685,0,-0.25878,0,0,0.25933,0.0455337,0,-0.0415143,0,0,0.0409743,4.79117e-06,0,3.62833e-05,0,0,2.36086e-06
0.1,0.5,0.0493679,0,0,-0.3,-0.0449821,0,0,0,0,0.3,0.0443176,12.4665,0,-14.066,0,0,0.86144,0.450632,0,-0.255018,0,0,0.255682,0.0496048,0,-0.0453013,0,0,0.044649,5.76285e-06,0,4.38483e-05,0,0,2.84631e-06
0.11,0.5,0.0533403,0,0,-0.3,-0.0486831,0,0,0,0,0.3,0.0478949,12.4015,0,-14.2805,0,0,0.855862,0.44666,0,-0.251317,0,0,0.252105,0.0535951,0,-0.0490263,0,0,0.0482528,6.806e-06,0,5.20279e-05,0,0,3.36944e-06
0.12,0.5,0.0572341,0,0,-0.3,-0.0523238,0,0,0,0,0.3,0.0514031,12.3403,0,-14.4952,0,0,0.850599,0.442766,0,-0.247676,0,0,0.248597,0.0575062,0,-0.0526903,0,0,0.0517869,7.9167e-06,0,6.07989e-05,0,0,3.92859e-06
0.13,0.5,0.0610507,0,0,-0.3,-0.0559054,0,0,0,0,0.3,0.0548436,12.2826,0,-14.7102,0,0,0.845635,0.438949,0,-0.244095,0,0,0.245156,0.0613396,0,-0.0562944,0,0,0.0552527,9.09118e-06,0,7.01387e-05,0,0,4.52216e-06
0.14,0.5,0.0647917,0,0,-0.3,-0.0594286,0,0,0,0,0.3,0.0582177,12.2283,0,-14.9252,0,0,0.840958,0.435208,0,-0.240571,0,0,0.241782,0.0650969,0,-0.0598395,0,0,0.0586516,1.03258e-05,0,8.00253e-05,0,0,5.1486e-06
0.15,0.5,0.0684586,0,0,-0.3,-0.0628946,0,0,0,0,0.3,0.0615266,12.1773,0,-15.1401,0,0,0.836556,0.431541,0,-0.237105,0,0,0.238473,0.0687795,0,-0.0633265,0,0,0.0619848,1.16172e-05,0,9.04373e-05,0,0,5.80643e-06
0.16,0.5,0.0720529,0,0,-0.3,-0.0663043,0,0,0,0,0.3,0.0647716,12.1294,0,-15.3548,0,0,0.832414,0.427947,0,-0.233696,0,0,0.235228,0.0723891,0,-0.0667565,0,0,0.0652535,1.2962e-05,0,0.000101354,0,0,6.49424e-06
0.17,0.5,0.075576,0,0,-0.3,-0.0696585,0,0,0,0,0.3,0.067954,12.0845,0,-15.5693,0,0,0.828523,0.424424,0,-0.230342,0,0,0.232046,0.0759269,0,-0.0701303,0,0,0.0684592,1.4357e-05,0,0.000112754,0,0,7.21066e-06
0.18,0.5,0.0790294,0,0,-0.3,-0.0729582,0,0,0,0,0.3,0.0710749,12.0424,0,-15.7834,0,0,0.824871,0.420971,0,-0.227042,0,0,0.228925,0.0793945,0,-0.0734489,0,0,0.0716029,1.57993e-05,0,0.000124619,0,0,7.95439e-06
0.19,0.5,0.0824144,0,0,-0.3,-0.0762043,0,0,0,0,0.3,0.0741356,12.003,0,-15.997,0,0,0.821446,0.417586,0,-0.223796,0,0,0.225864,0.0827933,0,-0.0767132,0,0,0.0746858,1.72858e-05,0,0.000136928,0,0,8.72416e-06
0.2,0.5,0.0857323,0,0,-0.3,-0.0793976,0,0,0,0,0.3,0.0771372,11.9662,0,-16.2101,0,0,0.818238,0.414268,0,-0.220602,0,0,0.222863,0.0861245,0,-0.0799241,0,0,0.0777092,1.88138e-05,0,0.000149664,0,0,9.51877e-06
0.21,0.5,0.0889845,0,0,-0.3,-0.082539,0,0,0,0,0.3,0.0800808,11.9318,0,-16.4225,0,0,0.815238,0.411015,0,-0.217461,0,0,0.219919,0.0893896,0,-0.0830823,0,0,0.0806741,2.03806e-05,0,0.000162807,0,0,1.03371e-05
0.22,0.5,0.0921724,0,0,-0.3,-0.0856294,0,0,0,0,0.3,0.0829677,11.8997,0,-16.6342,0,0,0.812435,0.407828,0,-0.214371,0,0,0.217032,0.0925898,0,-0.0861889,0,0,0.0835818,2.19836e-05,0,0.000176339,0,0,1.11779e-05
0.23,0.5,0.0952971,0,0,-0.3,-0.0886696,0,0,0,0,0.3,0.0857988,11.8699,0,-16.8451,0,0,0.809822,0.404703,0,-0.21133,0,0,0.214201,0.0957265,0,-0.0892447,0,0,0.0864333,2.36205e-05,0,0.000190243,0,0,1.20403e-05
0.24,0.5,0.0983599,0,0,-0.3,-0.0916604,0,0,0,0,0.3,0.0885752,11.8421,0,-17.0551,0,0,0.807388,0.40164,0,-0.20834,0,0,0.211425,0.0988009,0,-0.0922504,0,0,0.0892296,2.52888e-05,0,0.000204503,0,0,1.29232e-05
0.25,0.5,0.101362,0,0,-0.3,-0.0946027,0,0,0,0,0.3,0.091298,11.8164,0,-17.2642,0,0,0.805125,0.398638,0,-0.205397,0,0,0.208702,0.101814,0,-0.0952069,0,0,0.091972,2.69864e-05,0,0.000219101,0,0,1.38255e-05
0.26,0.5,0.104305,0,0,-0.3,-0.0974972,0,0,0,0,0.3,0.0939683,11.7926,0,-17.4723,0,0,0.803026,0.395695,0,-0.202503,0,0,0.206032,0.104768,0,-0.0981151,0,0,0.0946613,2.87109e-05,0,0.00023402,0,0,1.47464e-05
0.27,0.5,0.107189,0,0,-0.3,-0.100345,0,0,0,0,0.3,0.0965871,11.7707,0,-17.6793,0,0,0.801083,0.392811,0,-0.199655,0,0,0.203413,0.107662,0,-0.100976,0,0,0.0972987,3.04605e-05,0,0.000249247,0,0,1.5685e-05
0.28,0.5,0.110017,0,0,-0.3,-0.103146,0,0,0,0,0.3,0.0991553,11.7504,0,-17.8852,0,0,0.799288,0.389983,0,-0.196854,0,0,0.200845,0.1105,0,-0.103789,0,0,0.0998852,3.22331e-05,0,0.000264763,0,0,1.66403e-05
0.29,0.5,0.112788,0,0,-0.3,-0.105902,0,0,0,0,0.3,0.101674,11.7318,0,-18.09,0,0,0.797634,0.387212,0,-0.194098,0,0,0.198326,0.113281,0,-0.106557,0,0,0.102422,3.40268e-05,0,0.000280556,0,0,1.76116e-05
0.3,0.5,0.115505,0,0,-0.3,-0.108613,0,0,0,0,0.3,0.104144,11.7148,0,-18.2935,0,0,0.796114,0.384495,0,-0.191387,0,0,0.195856,0.116006,0,-0.109279,0,0,0.104909,3.58399e-05,0,0.000296609,0,0,1.85981e-05
0.31,0.5,0.118168,0,0,-0.3,-0.11128,0,0,0,0,0.3,0.106566,11.6993,0,-18.4958,0,0,0.794723,0.381832,0,-0.18872,0,0,0.193434,0.118678,0,-0.111957,0,0,0.107348,3.76705e-05,0,0.000312909,0,0,1.95989e-05
0.32,0.5,0.120778,0,0,-0.3,-0.113904,0,0,0,0,0.3,0.108942,11.6852,0,-18.6968,0,0,0.793453,0.379222,0,-0.186096,0,0,0.191058,0.121296,0,-0.114591,0,0,0.109741,3.95171e-05,0,0.000329442,0,0,2.06134e-05
0.33,0.5,0.123336,0,0,-0.3,-0.116485,0,0,0,0,0.3,0.111272,11.6724,0,-18.8964,0,0,0.792299,0.376664,0,-0.183515,0,0,0.188728,0.123863,0,-0.117182,0,0,0.112087,4.1378e-05,0,0.000346193,0,0,2.16408e-05
0.34,0.5,0.125844,0,0,-0.3,-0.119025,0,0,0,0,0.3,0.113556,11.661,0,-19.0947,0,0,0.791255,0.374156,0,-0.180975,0,0,0.186444,0.126378,0,-0.11973,0,0,0.114387,4.32517e-05,0,0.00036315,0,0,2.26804e-05
0.35,0.5,0.128302,0,0,-0.3,-0.121523,0,0,0,0,0.3,0.115797,11.6507,0,-19.2915,0,0,0.790315,0.371698,0,-0.178477,0,0,0.184203,0.128843,0,-0.122237,0,0,0.116644,4.51369e-05,0,0.000380299,0,0,2.37317e-05
0.36,0.5,0.130712,0,0,-0.3,-0.123981,0,0,0,0,0.3,0.117994,11.6416,0,-19.4869,0,0,0.789475,0.369288,0,-0.176019,0,0,0.182006,0.13126,0,-0.124702,0,0,0.118856,4.7032e-05,0,0.000397628,0,0,2.47939e-05
0.37,0.5,0.133074,0,0,-0.3,-0.126399,0,0,0,0,0.3,0.12015,11.6336,0,-19.6808,0,0,0.788729,0.366926,0,-0.173601,0,0,0.17985,0.133628,0,-0.127128,0,0,0.121026,4.89358e-05,0,0.000415124,0,0,2.58666e-05
0.38,0.5,0.135389,0,0,-0.3,-0.128778,0,0,0,0,0.3,0.122263,11.6266,0,-19.8731,0,0,0.788072,0.364611,0,-0.171222,0,0,0.177737,0.13595,0,-0.129513,0,0,0.123154,5.0847e-05,0,0.000432774,0,0,2.6949e-05
0.39,0.5,0.137658,0,0,-0.3,-0.131118,0,0,0,0,0.3,0.124336,11.6205,0,-20.064,0,0,0.787501,0.362342,0,-0.168882,0,0,0.175664,0.138225,0,-0.13186,0,0,0.125241,5.27643e-05,0,0.000450568,0,0,2.80407e-05
0.4,0.5,0.139882,0,0,-0.3,-0.133421,0,0,0,0,0.3,0.126368,11.6155,0,-20.2533,0,0,0.78701,0.360118,0,-0.166579,0,0,0.173632,0.140455,0,-0.134168,0,0,0.127287,5.46867e-05,0,0.000468494,0,0,2.91411e-05
0.41,0.5,0.142063,0,0,-0.3,-0.135686,0,0,0,0,0.3,0.128362,11.6113,0,-20.4409,0,0,0.786595,0.357937,0,-0.164314,0,0,0.171638,0.142641,0,-0.136438,0,0,0.129294,5.66131e-05,0,0.000486539,0,0,3.02498e-05
0.42,0.5,0.1442,0,0,-0.3,-0.137914,0,0,0,0,0.3,0.130317,11.6079,0,-20.627,0,0,0.786252,0.3558,0,-0.162086,0,0,0.169683,0.144783,0,-0.138671,0,0,0.131262,5.85422e-05,0,0.000504694,0,0,3.13662e-05
0.43,0.5,0.146295,0,0,-0.3,-0.140107,0,0,0,0,0.3,0.132234,11.6053,0,-20.8115,0,0,0.785978,0.353705,0,-0.159893,0,0,0.167766,0.146882,0,-0.140868,0,0,0.133193,6.04732e-05,0,0.000522946,0,0,3.24899e-05
0.44,0.5,0.148349,0,0,-0.3,-0.142264,0,0,0,0,0.3,0.134114,11.6034,0,-20.9943,0,0,0.785769,0.351651,0,-0.157736,0,0,0.165886,0.14894,0,-0.143028,0,0,0.135085,6.24051e-05,0,0.000541286,0,0,3.36203e-05
0.45,0.5,0.150362,0,0,-0.3,-0.144386,0,0,0,0,0.3,0.135958,11.6023,0,-21.1755,0,0,0.785621,0.349638,0,-0.155614,0,0,0.164042,0.150957,0,-0.145153,0,0,0.136942,6.43369e-05,0,0.000559703,0,0,3.47572e-05
0.46,0.5,0.152335,0,0,-0.3,-0.146474,0,0,0,0,0.3,0.137767,11.6018,0,-21.355,0,0,0.785532,0.347665,0,-0.153526,0,0,0.162233,0.152934,0,-0.147244,0,0,0.138762,6.62678e-05,0,0.000578187,0,0,3.59001e-05
0.47,0.5,0.154269,0,0,-0.3,-0.148528,0,0,0,0,0.3,0.13954,11.6019,0,-21.5328,0,0,0.785496,0.345731,0,-0.151472,0,0,0.16046,0.154872,0,-0.1493,0,0,0.140547,6.81968e-05,0,0.000596728,0,0,3.70485e-05
0.48,0.5,0.156165,0,0,-0.3,-0.150549,0,0,0,0,0.3,0.14128,11.6027,0,-21.7089,0,0,0.785513,0.343835,0,-0.149451,0,0,0.15872,0.156771,0,-0.151323,0,0,0.142298,7.01233e-05,0,0.000615317,0,0,3.82022e-05
0.49,0.5,0.158023,0,0,-0.3,-0.152537,0,0,0,0,0.3,0.142985,11.6039,0,-21.8833,0,0,0.785578,0.341977,0,-0.147463,0,0,0.157015,0.158632,0,-0.153312,0,0,0.144015,7.20464e-05,0,0.000633943,0,0,3.93607e-05
0.5,0.5,0.159845,0,0,-0.3,-0.154493,0,0,0,0,0.3,0.144658,11.6057,0,-22.056,0,0,0.785689,0.340155,0,-0.145507,0,0,0.155342,0.160457,0,-0.155269,0,0,0.145698,7.39654e-05,0,0.000652597,0,0,4.05237e-05
0.51,0.5,0.161631,0,0,-0.3,-0.156418,0,0,0,0,0.3,0.146299,11.608,0,-22.227,0,0,0.785843,0.338369,0,-0.143582,0,0,0.153701,0.162245,0,-0.157194,0,0,0.14735,7.58796e-05,0,0.000671271,0,0,4.16909e-05
0.52,0.5,0.163381,0,0,-0.3,-0.158311,0,0,0,0,0.3,0.147908,11.6108,0,-22.3963,0,0,0.786038,0.336619,0,-0.141689,0,0,0.152092,0.163997,0,-0.159087,0,0,0.148969,7.77883e-05,0,0.000689956,0,0,4.28619e-05
0.53,0.5,0.165097,0,0,-0.3,-0.160174,0,0,0,0,0.3,0.149486,11.6139,0,-22.5639,0,0,0.786271,0.334903,0,-0.139826,0,0,0.150514,0.165715,0,-0.160949,0,0,0.150557,7.96909e-05,0,0.000708642,0,0,4.40365e-05
0.54,0.5,0.166779,0,0,-0.3,-0.162007,0,0,0,0,0.3,0.151033,11.6175,0,-22.7297,0,0,0.78654,0.333221,0,-0.137993,0,0,0.148967,0.167398,0,-0.162781,0,0,0.152114,8.15868e-05,0,0.000727322,0,0,4.52143e-05
0.55,0.5,0.168427,0,0,-0.3,-0.163811,0,0,0,0,0.3,0.152551,11.6214,0,-22.8938,0,0,0.786843,0.331573,0,-0.136189,0,0,0.147449,0.169048,0,-0.164582,0,0,0.153641,8.34753e-05,0,0.000745986,0,0,4.6395e-05
0.56,0.5,0.170043,0,0,-0.3,-0.165585,0,0,0,0,0.3,0.154039,11.6258,0,-23.0562,0,0,0.787177,0.329957,0,-0.134415,0,0,0.145961,0.170665,0,-0.166355,0,0,0.155139,8.53559e-05,0,0.000764627,0,0,4.75785e-05
0.57,0.5,0.171627,0,0,-0.3,-0.167331,0,0,0,0,0.3,0.155499,11.6304,0,-23.2168,0,0,0.787541,0.328373,0,-0.132669,0,0,0.144501,0.17225,0,-0.168098,0,0,0.156608,8.72282e-05,0,0.000783237,0,0,4.87644e-05
0.58,0.5,0.17318,0,0,-0.3,-0.169048,0,0,0,0,0.3,0.15693,11.6353,0,-23.3758,0,0,0.787933,0.32682,0,-0.130952,0,0,0.14307,0.173804,0,-0.169812,0,0,0.158048,8.90915e-05,0,0.000801807,0,0,4.99525e-05
0.59,0.5,0.174702,0,0,-0.3,-0.170738,0,0,0,0,0.3,0.158334,11.6406,0,-23.5329,0,0,0.78835,0.325298,0,-0.129262,0,0,0.141666,0.175326,0,-0.171499,0,0,0.15946,9.09454e-05,0,0.000820331,0,0,5.11425e-05
0.6,0.5,0.176194,0,0,-0.3,-0.172401,0,0,0,0,0.3,0.159711,11.646,0,-23.6884,0,0,0.788791,0.323806,0,-0.127599,0,0,0.140289,0.176818,0,-0.173158,0,0,0.160845,9.27894e-05,0,0.0008388,0,0,5.23343e-05
0.61,0.5,0.177657,0,0,-0.3,-0.174037,0,0,0,0,0.3,0.161062,11.6518,0,-23.8422,0,0,0.789254,0.322343,0,-0.125963,0,0,0.138938,0.178281,0,-0.17479,0,0,0.162204,9.46231e-05,0,0.000857208,0,0,5.35276e-05
0.62,0.5,0.179091,0,0,-0.3,-0.175646,0,0,0,0,0.3,0.162386,11.6577,0,-23.9942,0,0,0.789739,0.320909,0,-0.124354,0,0,0.137614,0.179714,0,-0.176395,0,0,0.163536,9.64461e-05,0,0.000875546,0,0,5.47221e-05
0.63,0.5,0.180496,0,0,-0.3,-0.17723,0,0,0,0,0.3,0.163685,11.6639,0,-24.1445,0,0,0.790242,0.319504,0,-0.12277,0,0,0.136315,0.181119,0,-0.177974,0,0,0.164842,9.8258e-05,0,0.000893809,0,0,5.59178e-05
0.64,0.5,0.181874,0,0,-0.3,-0.178788,0,0,0,0,0.3,0.164958,11.6703,0,-24.2931,0,0,0.790763,0.318126,0,-0.121212,0,0,0.135042,0.182496,0,-0.179526,0,0,0.166124,0.000100058,0,0.000911988,0,0,5.71143e-05
0.65,0.5,0.183224,0,0,-0.3,-0.180322,0,0,0,0,0.3,0.166207,11.6768,0,-24.44,0,0,0.791301,0.316776,0,-0.119678,0,0,0.133793,0.183846,0,-0.181054,0,0,0.16738,0.000101847,0,0.000930077,0,0,5.83116e-05
0.66,0.5,0.184548,0,0,-0.3,-0.18183,0,0,0,0,0.3,0.167433,11.6835,0,-24.5853,0,0,0.791853,0.315452,0,-0.11817,0,0,0.132567,0.185169,0,-0.182556,0,0,0.168612,0.000103623,0,0.000948071,0,0,5.95095e-05
0.67,0.5,0.185846,0,0,-0.3,-0.183315,0,0,0,0,0.3,0.168634,11.6904,0,-24.7288,0,0,0.79242,0.314154,0,-0.116685,0,0,0.131366,0.186465,0,-0.184034,0,0,0.16982,0.000105387,0,0.000965961,0,0,6.07077e-05
0.68,0.5,0.187118,0,0,-0.3,-0.184775,0,0,0,0,0.3,0.169812,11.6974,0,-24.8707,0,0,0.792999,0.312882,0,-0.115225,0,0,0.130188,0.187735,0,-0.185488,0,0,0.171005,0.000107138,0,0.000983741,0,0,6.19061e-05
0.69,0.5,0.188365,0,0,-0.3,-0.186212,0,0,0,0,0.3,0.170968,11.7045,0,-25.0109,0,0,0.793589,0.311635,0,-0.113788,0,0,0.129032,0.188981,0,-0.186917,0,0,0.172167,0.000108875,0,0.00100141,0,0,6.31046e-05
0.7,0.5,0.189587,0,0,-0.3,-0.187626,0,0,0,0,0.3,0.172101,11.7117,0,-25.1494,0,0,0.79419,0.310413,0,-0.112374,0,0,0.127899,0.190201,0,-0.188324,0,0,0.173307,0.0001106,0,0.00101895,0,0,6.4303e-05
0.71,0.5,0.190785,0,0,-0.3,-0.189018,0,0,0,0,0.3,0.173213,11.719,0,-25.2863,0,0,0.7948,0.309215,0,-0.110982,0,0,0.126787,0.191397,0,-0.189707,0,0,0.174424,0.00011231,0,0.00103636,0,0,6.55012e-05
0.72,0.5,0.19196,0,0,-0.3,-0.190387,0,0,0,0,0.3,0.174303,11.7264,0,-25.4216,0,0,0.795419,0.30804,0,-0.109613,0,0,0.125697,0.19257,0,-0.191068,0,0,0.17552,0.000114007,0,0.00105365,0,0,6.6699e-05
0.73,0.5,0.193111,0,0,-0.3,-0.191734,0,0,0,0,0.3,0.175372,11.7339,0,-25.5552,0,0,0.796045,0.306889,0,-0.108266,0,0,0.124628,0.193718,0,-0.192406,0,0,0.176595,0.000115689,0,0.00107079,0,0,6.78963e-05
0.74,0.5,0.19424,0,0,-0.3,-0.193059,0,0,0,0,0.3,0.17642,11.7415,0,-25.6872,0,0,0.796678,0.30576,0,-0.106941,0,0,0.12358,0.194845,0,-0.193722,0,0,0.177649,0.000117357,0,0.00108778,0,0,6.9093e-05
0.75,0.5,0.195346,0,0,-0.3,-0.194364,0,0,0,0,0.3,0.177449,11.7491,0,-25.8176,0,0,0.797317,0.304654,0,-0.105636,0,0,0.122551,0.195948,0,-0.195017,0,0,0.178683,0.000119011,0,0.00110463,0,0,7.0289e-05
0.76,0.5,0.196431,0,0,-0.3,-0.195647,0,0,0,0,0.3,0.178457,11.7567,0,-25.9464,0,0,0.79796,0.303569,0,-0.104353,0,0,0.121543,0.19703,0,-0.196291,0,0,0.179696,0.000120649,0,0.00112132,0,0,7.14841e-05
0.77,0.5,0.197494,0,0,-0.3,-0.19691,0,0,0,0,0.3,0.179446,11.7644,0,-26.0736,0,0,0.798608,0.302506,0,-0.10309,0,0,0.120554,0.19809,0,-0.197544,0,0,0.18069,0.000122272,0,0.00113785,0,0,7.26782e-05
0.78,0.5,0.198536,0,0,-0.3,-0.198153,0,0,0,0,0.3,0.180416,11.7721,0,-26.1992,0,0,0.79926,0.301464,0,-0.101847,0,0,0.119584,0.199129,0,-0.198776,0,0,0.181665,0.00012388,0,0.00115421,0,0,7.38713e-05
0.79,0.5,0.199558,0,0,-0.3,-0.199376,0,0,0,0,0.3,0.181367,11.7799,0,-26.3233,0,0,0.799914,0.300442,0,-0.100624,0,0,0.118633,0.200147,0,-0.199988,0,0,0.182621,0.000125473,0,0.0011704,0,0,7.50633e-05
0.8,0.5,0.20056,0,0,-0.3,-0.200579,0,0,0,0,0.3,0.1823,11.7876,0,-26.4458,0,0,0.800571,0.29944,0,-0.0994208,0,0,0.1177,0.201145,0,-0.20118,0,0,0.183559,0.00012705,0,0.00118641,0,0,7.62539e-05
0.81,0.5,0.201542,0,0,-0.3,-0.201763,0,0,0,0,0.3,0.183216,11.7954,0,-26.5668,0,0,0.801229,0.298458,0,-0.0982367,0,0,0.116784,0.202123,0,-0.202353,0,0,0.184478,0.000128611,0,0.00120224,0,0,7.74433e-05
0.82,0.5,0.202504,0,0,-0.3,-0.202929,0,0,0,0,0.3,0.184113,11.8032,0,-26.6863,0,0,0.801888,0.297496,0,-0.0970715,0,0,0.115887,0.203082,0,-0.203506,0,0,0.18538,0.000130157,0,0.00121788,0,0,7.86312e-05
0.83,0.5,0.203448,0,0,-0.3,-0.204075,0,0,0,0,0.3,0.184993,11.811,0,-26.8042,0,0,0.802548,0.296552,0,-0.0959248,0,0,0.115007,0.204021,0,-0.204641,0,0,0.186264,0.000131686,0,0.00123333,0,0,7.98175e-05
0.84,0.5,0.204373,0,0,-0.3,-0.205204,0,0,0,0,0.3,0.185856,11.8187,0,-26.9207,0,0,0.803208,0.295627,0,-0.0947965,0,0,0.114144,0.204942,0,-0.205756,0,0,0.187131,0.000133199,0,0.00124859,0,0,8.10023e-05
0.85,0.5,0.20528,0,0,-0.3,-0.206314,0,0,0,0,0.3,0.186703,11.8265,0,-27.0356,0,0,0.803867,0.29472,0,-0.0936861,0,0,0.113297,0.205844,0,-0.206854,0,0,0.187981,0.000134696,0,0.00126364,0,0,8.21854e-05
0.86,0.5,0.206169,0,0,-0.3,-0.207407,0,0,0,0,0.3,0.187533,11.8342,0,-27.1491,0,0,0.804526,0.293831,0,-0.0925934,0,0,0.112467,0.206728,0,-0.207934,0,0,0.188815,0.000136176,0,0.00127849,0,0,8.33668e-05
0.87,0.5,0.20704,0,0,-0.3,-0.208482,0,0,0,0,0.3,0.188347,11.842,0,-27.2612,0,0,0.805183,0.29296,0,-0.0915182,0,0,0.111653,0.207595,0,-0.208996,0,0,0.189633,0.00013764,0,0.00129313,0,0,8.45464e-05
0.88,0.5,0.207894,0,0,-0.3,-0.20954,0,0,0,0,0.3,0.189146,11.8497,0,-27.3718,0,0,0.805839,0.292106,0,-0.09046,0,0,0.110854,0.208445,0,-0.21004,0,0,0.190435,0.000139087,0,0.00130755,0,0,8.5724e-05
0.89,0.5,0.208732,0,0,-0.3,-0.210581,0,0,0,0,0.3,0.189929,11.8573,0,-27.4809,0,0,0.806492,0.291268,0,-0.0894187,0,0,0.110071,0.209277,0,-0.211067,0,0,0.191221,0.000140517,0,0.00132176,0,0,8.68998e-05
0.9,0.5,0.209553,0,0,-0.3,-0.211606,0,0,0,0,0.3,0.190697,11.8649,0,-27.5887,0,0,0.807143,0.290447,0,-0.0883939,0,0,0.109303,0.210093,0,-0.212078,0,0,0.191992,0.000141931,0,0.00133574,0,0,8.80735e-05
0.91,0.5,0.210358,0,0,-0.3,-0.212615,0,0,0,0,0.3,0.191451,11.8725,0,-27.695,0,0,0.807792,0.289642,0,-0.0873854,0,0,0.108549,0.210892,0,-0.213072,0,0,0.192748,0.000143327,0,0.0013495,0,0,8.92452e-05
0.92,0.5,0.211147,0,0,-0.3,-0.213607,0,0,0,0,0.3,0.19219,11.8801,0,-27.8,0,0,0.808437,0.288853,0,-0.0863929,0,0,0.10781,0.211676,0,-0.214049,0,0,0.19349,0.000144707,0,0.00136303,0,0,9.04147e-05
0.93,0.5,0.21192,0,0,-0.3,-0.214584,0,0,0,0,0.3,0.192914,11.8876,0,-27.9036,0,0,0.809079,0.28808,0,-0.0854162,0,0,0.107086,0.212444,0,-0.215011,0,0,0.194217,0.000146069,0,0.00137632,0,0,9.15821e-05
0.94,0.5,0.212678,0,0,-0.3,-0.215545,0,0,0,0,0.3,0.193625,11.895,0,-28.0058,0,0,0.809717,0.287322,0,-0.084455,0,0,0.106375,0.213196,0,-0.215957,0,0,0.194931,0.000147414,0,0.00138937,0,0,9.27473e-05
0.95,0.5,0.213422,0,0,-0.3,-0.216491,0,0,0,0,0.3,0.194322,11.9024,0,-28.1067,0,0,0.810351,0.286578,0,-0.083509,0,0,0.105678,0.213934,0,-0.216887,0,0,0.19563,0.000148742,0,0.00140218,0,0,9.39102e-05
0.96,0.5,0.21415,0,0,-0.3,-0.217422,0,0,0,0,0.3,0.195006,11.9098,0,-28.2062,0,0,0.810981,0.28585,0,-0.082578,0,0,0.104994,0.214657,0,-0.217802,0,0,0.196316,0.000150053,0,0.00141475,0,0,9.50708e-05
0.97,0.5,0.214865,0,0,-0.3,-0.218338,0,0,0,0,0.3,0.195676,11.9171,0,-28.3045,0,0,0.811607,0.285135,0,-0.0816618,0,0,0.104324,0.215365,0,-0.218702,0,0,0.196989,0.000151346,0,0.00142706,0,0,9.6229e-05
0.98,0.5,0.215565,0,0,-0.3,-0.21924,0,0,0,0,0.3,0.196334,11.9243,0,-28.4014,0,0,0.812228,0.284435,0,-0.0807601,0,0,0.103666,0.216059,0,-0.219588,0,0,0.197648,0.000152622,0,0.00143913,0,0,9.73849e-05
0.99,0.5,0.216252,0,0,-0.3,-0.220127,0,0,0,0,0.3,0.196979,11.9315,0,-28.497,0,0,0.812845,0.283748,0,-0.0798726,0,0,0.103021,0.21674,0,-0.220459,0,0,0.198295,0.00015388,0,0.00145093,0,0,9.85383e-05
1,0.5,0.216925,0,0,-0.3,-0.221001,0,0,0,0,0.3,0.197611,11.9386,0,-28.5914,0,0,0.813457,0.283075,0,-0.0789992,0,0,0.102389,0.217407,0,-0.221315,0,0,0.19893,0.000155121,0,0.00146248,0,0,9.96892e-05
1.01,0.5,0.217585,0,0,-0.3,-0.22186,0,0,0,0,0.3,0.198232,11.9457,0,-28.6845,0,0,0.814063,0.282415,0,-0.0781396,0,0,0.101768,0.21806,0,-0.222157,0,0,0.199552,0.000156344,0,0.00147376,0,0,0.000100838
1.02,0.5,0.218232,0,0,-0.3,-0.222706,0,0,0,0,0.3,0.19884,11.9527,0,-28.7763,0,0,0.814665,0.281768,0,-0.0772936,0,0,0.10116,0.2187,0,-0.222986,0,0,0.200162,0.00015755,0,0.00148478,0,0,0.000101984
1.03,0.5,0.218866,0,0,-0.3,-0.223539,0,0,0,0,0.3,0.199437,11.9596,0,-28.8669,0,0,0.815261,0.281134,0,-0.0764609,0,0,0.100563,0.219328,0,-0.223801,0,0,0.20076,0.000158737,0,0.00149553,0,0,0.000103127
1.04,0.5,0.219488,0,0,-0.3,-0.224359,0,0,0,0,0.3,0.200022,11.9665,0,-28.9563,0,0,0.815851,0.280512,0,-0.0756414,0,0,0.0999777,0.219943,0,-0.224603,0,0,0.201347,0.000159907,0,0.001506,0,0,0.000104268
1.05,0.5,0.220098,0,0,-0.3,-0.225165,0,0,0,0,0.3,0.200596,11.9733,0,-29.0445,0,0,0.816436,0.279902,0,-0.0748348,0,0,0.0994037,0.220545,0,-0.225391,0,0,0.201922,0.00016106,0,0.0015162,0,0,0.000105406
1.06,0.5,0.220695,0,0,-0.3,-0.225959,0,0,0,0,0.3,0.201159,11.98,0,-29.1315,0,0,0.817016,0.279305,0,-0.0740409,0,0,0.0988407,0.221136,0,-0.226167,0,0,0.202487,0.000162195,0,0.00152612,0,0,0.000106541
1.07,0.5,0.221281,0,0,-0.3,-0.226741,0,0,0,0,0.3,0.201712,11.9867,0,-29.2173,0,0,0.817589,0.278719,0,-0.0732595,0,0,0.0982884,0.221715,0,-0.22693,0,0,0.20304,0.000163311,0,0.00153576,0,0,0.000107674
1.08,0.5,0.221856,0,0,-0.3,-0.22751,0,0,0,0,0.3,0.202253,11.9933,0,-29.3019,0,0,0.818157,0.278144,0,-0.0724904,0,0,0.0977468,0.222282,0,-0.22768,0,0,0.203583,0.00016441,0,0.00154512,0,0,0.000108804
1.09,0.5,0.222419,0,0,-0.3,-0.228267,0,0,0,0,0.3,0.202784,11.9998,0,-29.3854,0,0,0.818719,0.277581,0,-0.0717334,0,0,0.0972157,0.222838,0,-0.228418,0,0,0.204115,0.000165492,0,0.00155418,0,0,0.000109931
1.1,0.5,0.222971,0,0,-0.3,-0.229012,0,0,0,0,0.3,0.203305,12.0062,0,-29.4678,0,0,0.819274,0.277029,0,-0.0709883,0,0,0.0966947,0.223383,0,-0.229144,0,0,0.204636,0.000166555,0,0.00156296,0,0,0.000111056
1.11,0.5,0.223512,0,0,-0.3,-0.229745,0,0,0,0,0.3,0.203816,12.0126,0,-29.5491,0,0,0.819824,0.276488,0,-0.070255,0,0,0.0961837,0.223916,0,-0.229858,0,0,0.205148,0.0001676,0,0.00157145,0,0,0.000112178
1.12,0.5,0.224043,0,0,-0.3,-0.230467,0,0,0,0,0.3,0.204317,12.0189,0,-29.6292,0,0,0.820367,0.275957,0,-0.0695331,0,0,0.0956825,0.224439,0,-0.23056,0,0,0.20565,0.000168628,0,0.00157964,0,0,0.000113297
1.13,0.5,0.224564,0,0,-0.3,-0.231177,0,0,0,0,0.3,0.204809,12.0251,0,-29.7082,0,0,0.820905,0.275436,0,-0.0688226,0,0,0.095191,0.224952,0,-0.231251,0,0,0.206142,0.000169638,0,0.00158753,0,0,0.000114413
1.14,0.5,0.225074,0,0,-0.3,-0.231877,0,0,0,0,0.3,0.205291,12.0313,0,-29.7862,0,0,0.821436,0.274926,0,-0.0681232,0,0,0.0947089,0.225454,0,-0.23193,0,0,0.206625,0.00017063,0,0.00159512,0,0,0.000115526
1.15,0.5,0.225574,0,0,-0.3,-0.232565,0,0,0,0,0.3,0.205764,12.0373,0,-29.8631,0,0,0.821961,0.274426,0,-0.0674347,0,0,0.094236,0.225947,0,-0.232598,0,0,0.207098,0.000171603,0,0.00160241,0,0,0.000116637
1.16,0.5,0.226064,0,0,-0.3,-0.233243,0,0,0,0,0.3,0.206228,12.0433,0,-29.9389,0,0,0.82248,0.273936,0,-0.0667571,0,0,0.0937722,0.226429,0,-0.233255,0,0,0.207562,0.000172559,0,0.00160939,0,0,0.000117744
1.17,0.5,0.226545,0,0,-0.3,-0.23391,0,0,0,0,0.3,0.206683,12.0493,0,-30.0137,0,0,0.822992,0.273455,0,-0.0660901,0,0,0.0933173,0.226902,0,-0.233902,0,0,0.208017,0.000173498,0,0.00161606,0,0,0.000118849
1.18,0.5,0.227016,0,0,-0.3,-0.234567,0,0,0,0,0.3,0.207129,12.0551,0,-30.0874,0,0,0.823498,0.272984,0,-0.0654335,0,0,0.0928712,0.227365,0,-0.234538,0,0,0.208464,0.000174418,0,0.00162243,0,0,0.000119951
1.19,0.5,0.227478,0,0,-0.3,-0.235213,0,0,0,0,0.3,0.207566,12.0609,0,-30.1602,0,0,0.823998,0.272522,0,-0.0647871,0,0,0.0924336,0.227819,0,-0.235163,0,0,0.208901,0.00017532,0,0.00162848,0,0,0.00012105
1.2,0.5,0.227932,0,0,-0.3,-0.235849,0,0,0,0,0.3,0.207996,12.0666,0,-30.2319,0,0,0.824492,0.272068,0,-0.0641509,0,0,0.0920044,0.228264,0,-0.235778,0,0,0.20933,0.000176204,0,0.00163422,0,0,0.000122146
1.21,0.5,0.228376,0,0,-0.3,-0.236475,0,0,0,0,0.3,0.208417,12.0723,0,-30.3026,0,0,0.824979,0.271624,0,-0.0635246,0,0,0.0915835,0.2287,0,-0.236383,0,0,0.209751,0.000177071,0,0.00163965,0,0,0.000123239
1.22,0.5,0.228811,0,0,-0.3,-0.237092,0,0,0,0,0.3,0.208829,12.0778,0,-30.3724,0,0,0.82546,0.271189,0,-0.062908,0,0,0.0911706,0.229127,0,-0.236978,0,0,0.210164,0.000177919,0,0.00164475,0,0,0.000124329
1.23,0.5,0.229238,0,0,-0.3,-0.237699,0,0,0,0,0.3,0.209234,12.0833,0,-30.4412,0,0,0.825935,0.270762,0,-0.0623011,0,0,0.0907656,0.229545,0,-0.237564,0,0,0.210569,0.00017875,0,0.00164954,0,0,0.000125416
1.24,0.5,0.229657,0,0,-0.3,-0.238296,0,0,0,0,0.3,0.209632,12.0887,0,-30.509,0,0,0.826403,0.270343,0,-0.0617036,0,0,0.0903684,0.229955,0,-0.238139,0,0,0.210966,0.000179563,0,0.001654,0,0,0.000126501
1.25,0.5,0.230068,0,0,-0.3,-0.238885,0,0,0,0,0.3,0.210021,12.0941,0,-30.5759,0,0,0.826866,0.269932,0,-0.0611155,0,0,0.0899788,0.230357,0,-0.238705,0,0,0.211355,0.000180357,0,0.00165814,0,0,0.000127582
1.26,0.5,0.23047,0,0,-0.3,-0.239464,0,0,0,0,0.3,0.210403,12.0993,0,-30.6419,0,0,0.827322,0.26953,0,-0.0605365,0,0,0.0895967,0.230751,0,-0.239262,0,0,0.211737,0.000181134,0,0.00166195,0,0,0.00012866
1.27,0.5,0.230865,0,0,-0.3,-0.240034,0,0,0,0,0.3,0.210778,12.1045,0,-30.707,0,0,0.827772,0.269135,0,-0.0599665,0,0,0.0892219,0.231137,0,-0.23981,0,0,0.212111,0.000181893,0,0.00166544,0,0,0.000129736
1.28,0.5,0.231252,0,0,-0.3,-0.240595,0,0,0,0,0.3,0.211146,12.1097,0,-30.7711,0,0,0.828216,0.268748,0,-0.0594053,0,0,0.0888543,0.231515,0,-0.240349,0,0,0.212478,0.000182635,0,0.0016686,0,0,0.000130808
1.29,0.5,0.231631,0,0,-0.3,-0.241147,0,0,0,0,0.3,0.211506,12.1147,0,-30.8344,0,0,0.828653,0.268369,0,-0.0588529,0,0,0.0884937,0.231885,0,-0.240879,0,0,0.212838,0.000183358,0,0.00167142,0,0,0.000131877
1.3,0.5,0.232003,0,0,-0.3,-0.241691,0,0,0,0,0.3,0.21186,12.1197,0,-30.8968,0,0,0.829085,0.267997,0,-0.058309,0,0,0.0881401,0.232248,0,-0.2414,0,0,0.213191,0.000184064,0,0.00167391,0,0,0.000132944
1.31,0.5,0.232368,0,0,-0.3,-0.242226,0,0,0,0,0.3,0.212207,12.1246,0,-30.9583,0,0,0.82951,0.267632,0,-0.0577735,0,0,0.0877932,0.232604,0,-0.241913,0,0,0.213537,0.000184752,0,0.00167607,0,0,0.000134007
1.32,0.5,0.232726,0,0,-0.3,-0.242754,0,0,0,0,0.3,0.212547,12.1294,0,-31.0189,0,0,0.82993,0.267274,0,-0.0572464,0,0,0.0874529,0.232953,0,-0.242417,0,0,0.213877,0.000185422,0,0.00167789,0,0,0.000135068
1.33,0.5,0.233076,0,0,-0.3,-0.243273,0,0,0,0,0.3,0.212881,12.1342,0,-31.0787,0,0,0.830343,0.266924,0,-0.0567274,0,0,0.0871192,0.233294,0,-0.242913,0,0,0.21421,0.000186074,0,0.00167938,0,0,0.000136125
1.34,0.5,0.23342,0,0,-0.3,-0.243784,0,0,0,0,0.3,0.213208,12.1389,0,-31.1377,0,0,0.830751,0.26658,0,-0.0562164,0,0,0.0867919,0.233629,0,-0.2434,0,0,0.214536,0.000186708,0,0.00168053,0,0,0.000137179
1.35,0.5,0.233757,0,0,-0.3,-0.244287,0,0,0,0,0.3,0.213529,12.1436,0,-31.1958,0,0,0.831153,0.266243,0,-0.0557134,0,0,0.0864708,0.233957,0,-0.24388,0,0,0.214856,0.000187325,0,0.00168133,0,0,0.000138231
1.36,0.5,0.234088,0,0,-0.3,-0.244782,0,0,0,0,0.3,0.213844,12.1481,0,-31.2531,0,0,0.831549,0.265912,0,-0.0552181,0,0,0.0861559,0.234278,0,-0.244352,0,0,0.21517,0.000187924,0,0.0016818,0,0,0.000139279
1.37,0.5,0.234412,0,0,-0.3,-0.24527,0,0,0,0,0.3,0.214153,12.1526,0,-31.3096,0,0,0.831939,0.265588,0,-0.0547304,0,0,0.085847,0.234593,0,-0.244816,0,0,0.215478,0.000188506,0,0.00168192,0,0,0.000140325
1.38,0.5,0.23473,0,0,-0.3,-0.24575,0,0,0,0,0.3,0.214456,12.1571,0,-31.3654,0,0,0.832323,0.26527,0,-0.0542503,0,0,0.085544,0.234901,0,-0.245272,0,0,0.21578,0.000189069,0,0.0016817,0,0,0.000141367
1.39,0.5,0.235041,0,0,-0.3,-0.246222,0,0,0,0,0.3,0.214753,12.1615,0,-31.4203,0,0,0.832702,0.264959,0,-0.0537776,0,0,0.0852469,0.235203,0,-0.245721,0,0,0.216076,0.000189615,0,0.00168113,0,0,0.000142406
1.4,0.5,0.235347,0,0,-0.3,-0.246688,0,0,0,0,0.3,0.215045,12.1658,0,-31.4745,0,0,0.833075,0.264653,0,-0.0533122,0,0,0.0849554,0.235499,0,-0.246163,0,0,0.216366,0.000190144,0,0.00168022,0,0,0.000143443
1.41,0.5,0.235647,0,0,-0.3,-0.247146,0,0,0,0,0.3,0.215331,12.17,0,-31.5279,0,0,0.833443,0.264353,0,-0.0528539,0,0,0.0846694,0.235789,0,-0.246597,0,0,0.216651,0.000190655,0,0.00167896,0,0,0.000144476
1.42,0.5,0.235941,0,0,-0.3,-0.247597,0,0,0,0,0.3,0.215611,12.1742,0,-31.5806,0,0,0.833805,0.264059,0,-0.0524026,0,0,0.084389,0.236074,0,-0.247024,0,0,0.21693,0.000191148,0,0.00167735,0,0,0.000145506
1.43,0.5,0.236229,0,0,-0.3,-0.248042,0,0,0,0,0.3,0.215886,12.1783,0,-31.6325,0,0,0.834161,0.263771,0,-0.0519583,0,0,0.0841139,0.236352,0,-0.247444,0,0,0.217204,0.000191624,0,0.0016754,0,0,0.000146533
1.44,0.5,0.236511,0,0,-0.3,-0.248479,0,0,0,0,0.3,0.216156,12.1824,0,-31.6837,0,0,0.834512,0.263489,0,-0.0515209,0,0,0.0838441,0.236625,0,-0.247857,0,0,0.217472,0.000192082,0,0.00167309,0,0,0.000147558
1.45,0.5,0.236788,0,0,-0.3,-0.24891,0,0,0,0,0.3,0.216421,12.1864,0,-31.7342,0,0,0.834858,0.263212,0,-0.0510901,0,0,0.0835794,0.236892,0,-0.248264,0,0,0.217735,0.000192523,0,0.00167043,0,0,0.000148579
1.46,0.5,0.23706,0,0,-0.3,-0.249334,0,0,0,0,0.3,0.21668,12.1903,0,-31.7839,0,0,0.835199,0.26294,0,-0.0506659,0,0,0.0833198,0.237154,0,-0.248663,0,0,0.217993,0.000192947,0,0.00166742,0,0,0.000149597
1.47,0.5,0.237326,0,0,-0.3,-0.249752,0,0,0,0,0.3,0.216935,12.1942,0,-31.833,0,0,0.835534,0.262674,0,-0.0502483,0,0,0.0830651,0.237411,0,-0.249057,0,0,0.218247,0.000193353,0,0.00166405,0,0,0.000150612
1.48,0.5,0.237588,0,0,-0.3,-0.250163,0,0,0,0,0.3,0.217185,12.198,0,-31.8814,0,0,0.835864,0.262412,0,-0.049837,0,0,0.0828153,0.237662,0,-0.249443,0,0,0.218495,0.000193741,0,0.00166034,0,0,0.000151624
1.49,0.5,0.237844,0,0,-0.3,-0.250568,0,0,0,0,0.3,0.21743,12.2017,0,-31.9291,0,0,0.836189,0.262156,0,-0.049432,0,0,0.0825703,0.237908,0,-0.249823,0,0,0.218738,0.000194112,0,0.00165627,0,0,0.000152634
1.5,0.5,0.238095,0,0,-0.3,-0.250967,0,0,0,0,0.3,0.21767,12.2054,0,-31.9761,0,0,0.836509,0.261905,0,-0.0490332,0,0,0.08233,0.23815,0,-0.250197,0,0,0.218977,0.000194466,0,0.00165184,0,0,0.00015364
1.51,0.5,0.238341,0,0,-0.3,-0.251359,0,0,0,0,0.3,0.217906,12.2091,0,-32.0225,0,0,0.836823,0.261659,0,-0.0486405,0,0,0.0820942,0.238386,0,-0.250565,0,0,0.219211,0.000194803,0,0.00164706,0,0,0.000154643
1.52,0.5,0.238583,0,0,-0.3,-0.251746,0,0,0,0,0.3,0.218137,12.2126,0,-32.0682,0,0,0.837133,0.261417,0,-0.0482538,0,0,0.081863,0.238617,0,-0.250927,0,0,0.219441,0.000195123,0,0.00164192,0,0,0.000155643
1.53,0.5,0.23882,0,0,-0.3,-0.252127,0,0,0,0,0.3,0.218364,12.2162,0,-32.1132,0,0,0.837438,0.26118,0,-0.047873,0,0,0.0816361,0.238844,0,-0.251283,0,0,0.219666,0.000195425,0,0.00163642,0,0,0.00015664
1.54,0.5,0.239052,0,0,-0.3,-0.252502,0,0,0,0,0.3,0.218586,12.2196,0,-32.1577,0,0,0.837738,0.260948,0,-0.047498,0,0,0.0814136,0.239067,0,-0.251633,0,0,0.219886,0.00019571,0,0.00163057,0,0,0.000157635
1.55,0.5,0.23928,0,0,-0.3,-0.252871,0,0,0,0,0.3,0.218805,12.223,0,-32.2015,0,0,0.838034,0.26072,0,-0.0471287,0,0,0.0811954,0.239284,0,-0.251977,0,0,0.220103,0.000195978,0,0.00162436,0,0,0.000158626
1.56,0.5,0.239503,0,0,-0.3,-0.253235,0,0,0,0,0.3,0.219019,12.2264,0,-32.2446,0,0,0.838325,0.260497,0,-0.0467651,0,0,0.0809813,0.239498,0,-0.252315,0,0,0.220315,0.000196228,0,0.00161779,0,0,0.000159614
1.57,0.5,0.239722,0,0,-0.3,-0.253593,0,0,0,0,0.3,0.219229,12.2297,0,-32.2872,0,0,0.838611,0.260278,0,-0.0464069,0,0,0.0807712,0.239707,0,-0.252648,0,0,0.220523,0.000196462,0,0.00161086,0,0,0.000160599
1.58,0.5,0.239937,0,0,-0.3,-0.253946,0,0,0,0,0.3,0.219435,12.233,0,-32.3292,0,0,0.838892,0.260063,0,-0.0460542,0,0,0.0805652,0.239911,0,-0.252976,0,0,0.220727,0.000196679,0,0.00160358,0,0,0.000161582
1.59,0.5,0.240148,0,0,-0.3,-0.254293,0,0,0,0,0.3,0.219637,12.2362,0,-32.3706,0,0,0.839169,0.259852,0,-0.0457068,0,0,0.0803632,0.240112,0,-0.253298,0,0,0.220927,0.000196878,0,0.00159593,0,0,0.000162561
1.6,0.5,0.240354,0,0,-0.3,-0.254635,0,0,0,0,0.3,0.219835,12.2393,0,-32.4114,0,0,0.839442,0.259646,0,-0.0453648,0,0,0.0801649,0.240308,0,-0.253614,0,0,0.221124,0.000197061,0,0.00158792,0,0,0.000163538
1.61,0.5,0.240557,0,0,-0.3,-0.254972,0,0,0,0,0.3,0.22003,12.2424,0,-32.4516,0,0,0.83971,0.259443,0,-0.0450279,0,0,0.0799705,0.240501,0,-0.253926,0,0,0.221316,0.000197227,0,0.00157956,0,0,0.000164511
1.62,0.5,0.240756,0,0,-0.3,-0.255304,0,0,0,0,0.3,0.22022,12.2455,0,-32.4912,0,0,0.839973,0.259244,0,-0.0446961,0,0,0.0797797,0.240689,0,-0.254232,0,0,0.221505,0.000197376,0,0.00157083,0,0,0.000165482
1.63,0.5,0.240951,0,0,-0.3,-0.255631,0,0,0,0,0.3,0.220407,12.2485,0,-32.5303,0,0,0.840233,0.259049,0,-0.0443693,0,0,0.0795926,0.240874,0,-0.254534,0,0,0.22169,0.000197508,0,0.00156175,0,0,0.000166449
1.64,0.5,0.241142,0,0,-0.3,-0.255953,0,0,0,0,0.3,0.220591,12.2514,0,-32.5689,0,0,0.840488,0.258858,0,-0.0440475,0,0,0.0794091,0.241055,0,-0.25483,0,0,0.221871,0.000197623,0,0.0015523,0,0,0.000167414
1.65,0.5,0.241329,0,0,-0.3,-0.25627,0,0,0,0,0.3,0.220771,12.2544,0,-32.6069,0,0,0.840739,0.258671,0,-0.0437305,0,0,0.079229,0.241232,0,-0.255121,0,0,0.222049,0.000197722,0,0.0015425,0,0,0.000168375
1.66,0.5,0.241513,0,0,-0.3,-0.256582,0,0,0,0,0.3,0.220948,12.2572,0,-32.6443,0,0,0.840986,0.258487,0,-0.0434183,0,0,0.0790524,0.241405,0,-0.255408,0,0,0.222224,0.000197804,0,0.00153233,0,0,0.000169334
1.67,0.5,0.241693,0,0,-0.3,-0.256889,0,0,0,0,0.3,0.221121,12.26,0,-32.6812,0,0,0.841229,0.258307,0,-0.0431108,0,0,0.0788792,0.241575,0,-0.25569,0,0,0.222395,0.000197869,0,0.0015218,0,0,0.00017029
1.68,0.5,0.24187,0,0,-0.3,-0.257192,0,0,0,0,0.3,0.221291,12.2628,0,-32.7176,0,0,0.841468,0.25813,0,-0.042808,0,0,0.0787092,0.241742,0,-0.255967,0,0,0.222563,0.000197917,0,0.00151092,0,0,0.000171243
1.69,0.5,0.242044,0,0,-0.3,-0.25749,0,0,0,0,0.3,0.221458,12.2655,0,-32.7535,0,0,0.841703,0.257956,0,-0.0425097,0,0,0.0785425,0.241905,0,-0.25624,0,0,0.222727,0.000197949,0,0.00149967,0,0,0.000172193
1.7,0.5,0.242214,0,0,-0.3,-0.257784,0,0,0,0,0.3,0.221621,12.2682,0,-32.7889,0,0,0.841934,0.257786,0,-0.042216,0,0,0.0783789,0.242064,0,-0.256508,0,0,0.222888,0.000197965,0,0.00148806,0,0,0.00017314
1.71,0.5,0.24238,0,0,-0.3,-0.258073,0,0,0,0,0.3,0.221782,12.2708,0,-32.8238,0,0,0.842161,0.25762,0,-0.0419266,0,0,0.0782185,0.242221,0,-0.256772,0,0,0.223047,0.000197964,0,0.00147609,0,0,0.000174085
1.72,0.5,0.242544,0,0,-0.3,-0.258358,0,0,0,0,0.3,0.221939,12.2734,0,-32.8582,0,0,0.842384,0.257456,0,-0.0416416,0,0,0.0780611,0.242374,0,-0.257031,0,0,0.223202,0.000197946,0,0.00146377,0,0,0.000175026
1.73,0.5,0.242704,0,0,-0.3,-0.258639,0,0,0,0,0.3,0.222093,12.276,0,-32.8921,0,0,0.842604,0.257296,0,-0.0413609,0,0,0.0779067,0.242524,0,-0.257286,0,0,0.223354,0.000197912,0,0.00145108,0,0,0.000175965
1.74,0.5,0.242862,0,0,-0.3,-0.258916,0,0,0,0,0.3,0.222245,12.2785,0,-32.9255,0,0,0.84282,0.257138,0,-0.0410844,0,0,0.0777552,0.242671,0,-0.257537,0,0,0.223503,0.000197862,0,0.00143803,0,0,0.0001769
1.75,0.5,0.243016,0,0,-0.3,-0.259188,0,0,0,0,0.3,0.222393,12.281,0,-32.9584,0,0,0.843032,0.256984,0,-0.040812,0,0,0.0776066,0.242815,0,-0.257784,0,0,0.223649,0.000197795,0,0.00142463,0,0,0.000177833
1.76,0.5,0.243167,0,0,-0.3,-0.259456,0,0,0,0,0.3,0.222539,12.2834,0,-32.9909,0,0,0.843241,0.256833,0,-0.0405437,0,0,0.0774609,0.242956,0,-0.258026,0,0,0.223793,0.000197712,0,0.00141087,0,0,0.000178763
1.77,0.5,0.243316,0,0,-0.3,-0.259721,0,0,0,0,0.3,0.222682,12.2858,0,-33.0229,0,0,0.843447,0.256684,0,-0.0402795,0,0,0.0773179,0.243094,0,-0.258265,0,0,0.223933,0.000197613,0,0.00139675,0,0,0.00017969
1.78,0.5,0.243462,0,0,-0.3,-0.259981,0,0,0,0,0.3,0.222822,12.2881,0,-33.0545,0,0,0.843648,0.256538,0,-0.0400192,0,0,0.0771776,0.243229,0,-0.2585,0,0,0.224071,0.000197498,0,0.00138227,0,0,0.000180615
1.79,0.5,0.243604,0,0,-0.3,-0.260237,0,0,0,0,0.3,0.22296,12.2904,0,-33.0856,0,0,0.843847,0.256396,0,-0.0397628,0,0,0.07704,0.243362,0,-0.25873,0,0,0.224206,0.000197367,0,0.00136743,0,0,0.000181536
1.8,0.5,0.243744,0,0,-0.3,-0.26049,0,0,0,0,0.3,0.223095,12.2927,0,-33.1163,0,0,0.844042,0.256256,0,-0.0395102,0,0,0.076905,0.243491,0,-0.258957,0,0,0.224339,0.000197219,0,0.00135224,0,0,0.000182455
1.81,0.5,0.243882,0,0,-0.3,-0.260739,0,0,0,0,0.3,0.223227,12.2949,0,-33.1465,0,0,0.844234,0.256118,0,-0.0392614,0,0,0.0767725,0.243618,0,-0.259181,0,0,0.224469,0.000197056,0,0.00133669,0,0,0.000183371
1.82,0.5,0.244017,0,0,-0.3,-0.260984,0,0,0,0,0.3,0.223357,12.2971,0,-33.1764,0,0,0.844423,0.255983,0,-0.0390164,0,0,0.0766426,0.243743,0,-0.2594,0,0,0.224596,0.000196877,0,0.00132078,0,0,0.000184284
1.83,0.5,0.244149,0,0,-0.3,-0.261225,0,0,0,0,0.3,0.223485,12.2993,0,-33.2058,0,0,0.844608,0.255851,0,-0.0387749,0,0,0.0765152,0.243865,0,-0.259616,0,0,0.224721,0.000196681,0,0.00130452,0,0,0.000185194
1.84,0.5,0.244278,0,0,-0.3,-0.261463,0,0,0,0,0.3,0.22361,12.3014,0,-33.2347,0,0,0.84479,0.255722,0,-0.0385371,0,0,0.0763901,0.243984,0,-0.259828,0,0,0.224844,0.00019647,0,0.00128791,0,0,0.000186102
1.85,0.5,0.244406,0,0,-0.3,-0.261697,0,0,0,0,0.3,0.223733,12.3035,0,-33.2633,0,0,0.844969,0.255594,0,-0.0383029,0,0,0.0762675,0.244101,0,-0.260037,0,0,0.224964,0.000196243,0,0.00127094,0,0,0.000187007
1.86,0.5,0.24453,0,0,-0.3,-0.261928,0,0,0,0,0.3,0.223853,12.3055,0,-33.2914,0,0,0.845145,0.25547,0,-0.0380721,0,0,0.0761471,0.244215,0,-0.260243,0,0,0.225082,0.000196,0,0.00125362,0,0,0.000187909
1.87,0.5,0.244653,0,0,-0.3,-0.262155,0,0,0,0,0.3,0.223971,12.3075,0,-33.3192,0,0,0.845318,0.255347,0,-0.0378448,0,0,0.076029,0.244327,0,-0.260444,0,0,0.225198,0.000195742,0,0.00123595,0,0,0.000188808
1.88,0.5,0.244773,0,0,-0.3,-0.262379,0,0,0,0,0.3,0.224087,12.3095,0,-33.3466,0,0,0.845489,0.255227,0,-0.0376208,0,0,0.0759132,0.244437,0,-0.260643,0,0,0.225311,0.000195468,0,0.00121793,0,0,0.000189704
1.89,0.5,0.24489,0,0,-0.3,-0.2626,0,0,0,0,0.3,0.2242,12.3115,0,-33.3735,0,0,0.845656,0.25511,0,-0.0374002,0,0,0.0757996,0.244544,0,-0.260838,0,0,0.225422,0.000195178,0,0.00119955,0,0,0.000190598
1.9,0.5,0.245006,0,0,-0.3,-0.262817,0,0,0,0,0.3,0.224312,12.3134,0,-33.4001,0,0,0.84582,0.254994,0,-0.0371829,0,0,0.0756881,0.244649,0,-0.26103,0,0,0.225531,0.000194873,0,0.00118083,0,0,0.00019149
1.91,0.5,0.245119,0,0,-0.3,-0.263031,0,0,0,0,0.3,0.224421,12.3153,0,-33.4263,0,0,0.845982,0.254881,0,-0.0369688,0,0,0.0755788,0.244752,0,-0.261219,0,0,0.225638,0.000194553,0,0.00116175,0,0,0.000192378
1.92,0.5,0.24523,0,0,-0.3,-0.263242,0,0,0,0,0.3,0.224529,12.3171,0,-33.4522,0,0,0.84614,0.25477,0,-0.0367578,0,0,0.0754715,0.244853,0,-0.261405,0,0,0.225743,0.000194216,0,0.00114233,0,0,0.000193264
1.93,0.5,0.245339,0,0,-0.3,-0.26345,0,0,0,0,0.3,0.224634,12.3189,0,-33.4776,0,0,0.846296,0.254661,0,-0.03655,0,0,0.0753662,0.244952,0,-0.261588,0,0,0.225845,0.000193865,0,0.00112256,0,0,0.000194147
1.94,0.5,0.245446,0,0,-0.3,-0.263655,0,0,0,0,0.3,0.224737,12.3207,0,-33.5027,0,0,0.84645,0.254554,0,-0.0363453,0,0,0.0752629,0.245048,0,-0.261767,0,0,0.225946,0.000193498,0,0.00110245,0,0,0.000195027
1.95,0.5,0.245551,0,0,-0.3,-0.263856,0,0,0,0,0.3,0.224838,12.3225,0,-33.5275,0,0,0.8466,0.254449,0,-0.0361437,0,0,0.0751616,0.245143,0,-0.261944,0,0,0.226045,0.000193116,0,0.00108199,0,0,0.000195905
1.96,0.5,0.245654,0,0,-0.3,-0.264055,0,0,0,0,0.3,0.224938,12.3242,0,-33.5519,0,0,0.846748,0.254346,0,-0.035945,0,0,0.0750622,0.245235,0,-0.262118,0,0,0.226142,0.000192719,0,0.00106119,0,0,0.00019678
1.97,0.5,0.245755,0,0,-0.3,-0.264251,0,0,0,0,0.3,0.225035,12.3259,0,-33.5759,0,0,0.846894,0.254245,0,-0.0357493,0,0,0.0749647,0.245326,0,-0.262289,0,0,0.226237,0.000192307,0,0.00104004,0,0,0.000197653
1.98,0.5,0.245854,0,0,-0.3,-0.264444,0,0,0,0,0.3,0.225131,12.3276,0,-33.5996,0,0,0.847037,0.254146,0,-0.0355564,0,0,0.0748691,0.245415,0,-0.262457,0,0,0.22633,0.000191879,0,0.00101855,0,0,0.000198522
1.99,0.5,0.245951,0,0,-0.3,-0.264634,0,0,0,0,0.3,0.225225,12.3292,0,-33.623,0,0,0.847177,0.254049,0,-0.0353665,0,0,0.0747752,0.245502,0,-0.262622,0,0,0.226421,0.000191437,0,0.000996723,0,0,0.00019939
2,0.5,0.246046,0,0,-0.3,-0.264821,0,0,0,0,0.3,0.225317,12.3308,0,-33.646,0,0,0.847315,0.253954,0,-0.0351793,0,0,0.0746831,0.245587,0,-0.262785,0,0,0.22651,0.000190979,0,0.000974555,0,0,0.000200254
2.01,0.5,0.24614,0,0,-0.3,-0.265005,0,0,0,0,0.3,0.225407,12.3324,0,-33.6687,0,0,0.847451,0.25386,0,-0.034995,0,0,0.0745928,0.24567,0,-0.262944,0,0,0.226598,0.000190507,0,0.000952048,0,0,0.000201116
2.02,0.5,0.246231,0,0,-0.3,-0.265187,0,0,0,0,0.3,0.225496,12.3339,0,-33.6911,0,0,0.847584,0.253769,0,-0.0348133,0,0,0.0745041,0.245751,0,-0.263101,0,0,0.226684,0.00019002,0,0.000929205,0,0,0.000201976
2.03,0.5,0.246321,0,0,-0.3,-0.265366,0,0,0,0,0.3,0.225583,12.3355,0,-33.7132,0,0,0.847715,0.253679,0,-0.0346343,0,0,0.0744172,0.245831,0,-0.263256,0,0,0.226769,0.000189518,0,0.000906026,0,0,0.000202833
2.04,0.5,0.246409,0,0,-0.3,-0.265542,0,0,0,0,0.3,0.225668,12.337,0,-33.7349,0,0,0.847844,0.253591,0,-0.034458,0,0,0.0743319,0.245909,0,-0.263408,0,0,0.226851,0.000189002,0,0.000882513,0,0,0.000203687
2.05,0.5,0.246496,0,0,-0.3,-0.265716,0,0,0,0,0.3,0.225752,12.3385,0,-33.7563,0,0,0.84797,0.253504,0,-0.0342843,0,0,0.0742481,0.245986,0,-0.263557,0,0,0.226932,0.00018847,0,0.000858667,0,0,0.000204539
2.06,0.5,0.246581,0,0,-0.3,-0.265887,0,0,0,0,0.3,0.225834,12.3399,0,-33.7774,0,0,0.848094,0.253419,0,-0.0341132,0,0,0.074166,0.246061,0,-0.263704,0,0,0.227012,0.000187925,0,0.000834489,0,0,0.000205388
2.07,0.5,0.246664,0,0,-0.3,-0.266055,0,0,0,0,0.3,0.225915,12.3413,0,-33.7982,0,0,0.848216,0.253336,0,-0.0339446,0,0,0.0740855,0.246134,0,-0.263849,0,0,0.22709,0.000187364,0,0.000809981,0,0,0.000206235
2.08,0.5,0.246746,0,0,-0.3,-0.266221,0,0,0,0,0.3,0.225994,12.3427,0,-33.8188,0,0,0.848336,0.253254,0,-0.0337785,0,0,0.0740064,0.246205,0,-0.263991,0,0,0.227166,0.00018679,0,0.000785144,0,0,0.00020708
2.09,0.5,0.246826,0,0,-0.3,-0.266385,0,0,0,0,0.3,0.226071,12.3441,0,-33.839,0,0,0.848454,0.253174,0,-0.0336149,0,0,0.0739288,0.246276,0,-0.264131,0,0,0.227241,0.0001862,0,0.00075998,0,0,0.000207921
2.1,0.5,0.246904,0,0,-0.3,-0.266546,0,0,0,0,0.3,0.226147,12.3454,0,-33.8589,0,0,0.84857,0.253096,0,-0.0334536,0,0,0.0738527,0.246344,0,-0.264268,0,0,0.227315,0.000185597,0,0.000734489,0,0,0.000208761
2.11,0.5,0.246981,0,0,-0.3,-0.266705,0,0,0,0,0.3,0.226222,12.3468,0,-33.8785,0,0,0.848683,0.253019,0,-0.0332948,0,0,0.0737781,0.246411,0,-0.264403,0,0,0.227387,0.000184979,0,0.000708675,0,0,0.000209598
2.12,0.5,0.247057,0,0,-0.3,-0.266862,0,0,0,0,0.3,0.226295,12.3481,0,-33.8979,0,0,0.848795,0.252943,0,-0.0331383,0,0,0.0737048,0.246477,0,-0.264536,0,0,0.227458,0.000184347,0,0.000682538,0,0,0.000210432
2.13,0.5,0.247131,0,0,-0.3,-0.267016,0,0,0,0,0.3,0.226367,12.3494,0,-33.917,0,0,0.848904,0.252869,0,-0.0329842,0,0,0.073633,0.246541,0,-0.264667,0,0,0.227527,0.000183701,0,0.000656079,0,0,0.000211264
2.14,0.5,0.247204,0,0,-0.3,-0.267168,0,0,0,0,0.3,0.226438,12.3506,0,-33.9358,0,0,0.849012,0.252796,0,-0.0328323,0,0,0.0735625,0.246604,0,-0.264795,0,0,0.227595,0.000183041,0,0.000629301,0,0,0.000212094
2.15,0.5,0.247275,0,0,-0.3,-0.267317,0,0,0,0,0.3,0.226507,12.3518,0,-33.9543,0,0,0.849118,0.252725,0,-0.0326826,0,0,0.0734933,0.246666,0,-0.264922,0,0,0.227661,0.000182367,0,0.000602205,0,0,0.000212921
2.16,0.5,0.247345,0,0,-0.3,-0.267465,0,0,0,0,0.3,0.226575,12.3531,0,-33.9725,0,0,0.849222,0.252655,0,-0.0325352,0,0,0.0734254,0.246726,0,-0.265046,0,0,0.227727,0.000181679,0,0.000574792,0,0,0.000213745
2.17,0.5,0.247414,0,0,-0.3,-0.26761,0,0,0,0,0.3,0.226641,12.3542,0,-33.9905,0,0,0.849324,0.252586,0,-0.03239,0,0,0.0733588,0.246785,0,-0.265168,0,0,0.227791,0.000180977,0,0.000547065,0,0,0.000214568
2.18,0.5,0.247482,0,0,-0.3,-0.267753,0,0,0,0,0.3,0.226707,12.3554,0,-34.0083,0,0,0.849424,0.252518,0,-0.0322469,0,0,0.0732935,0.246843,0,-0.265288,0,0,0.227854,0.000180262,0,0.000519025,0,0,0.000215388
2.19,0.5,0.247548,0,0,-0.3,-0.267894,0,0,0,0,0.3,0.226771,12.3566,0,-34.0257,0,0,0.849522,0.252452,0,-0.0321059,0,0,0.0732294,0.2469,0,-0.265407,0,0,0.227915,0.000179532,0,0.000490674,0,0,0.000216206
2.2,0.5,0.247613,0,0,-0.3,-0.268033,0,0,0,0,0.3,0.226834,12.3577,0,-34.0429,0,0,0.849619,0.252387,0,-0.031967,0,0,0.0731665,0.246955,0,-0.265523,0,0,0.227975,0.000178789,0,0.000462014,0,0,0.000217021
2.21,0.5,0.247676,0,0,-0.3,-0.26817,0,0,0,0,0.3,0.226895,12.3588,0,-34.0599,0,0,0.849714,0.252324,0,-0.0318302,0,0,0.0731048,0.247009,0,-0.265637,0,0,0.228035,0.000178033,0,0.000433046,0,0,0.000217834
2.22,0.5,0.247739,0,0,-0.3,-0.268305,0,0,0,0,0.3,0.226956,12.3599,0,-34.0766,0,0,0.849807,0.252261,0,-0.0316954,0,0,0.0730442,0.247062,0,-0.265749,0,0,0.228093,0.000177263,0,0.000403772,0,0,0.000218645
2.23,0.5,0.2478,0,0,-0.3,-0.268437,0,0,0,0,0.3,0.227015,12.3609,0,-34.0931,0,0,0.849899,0.2522,0,-0.0315627,0,0,0.0729848,0.247113,0,-0.26586,0,0,0.22815,0.000176479,0,0.000374194,0,0,0.000219453
2.24,0.5,0.24786,0,0,-0.3,-0.268568,0,0,0,0,0.3,0.227073,12.362,0,-34.1093,0,0,0.849988,0.25214,0,-0.0314318,0,0,0.0729265,0.247164,0,-0.265968,0,0,0.228205,0.000175682,0,0.000344315,0,0,0.000220259
2.25,0.5,0.247919,0,0,-0.3,-0.268697,0,0,0,0,0.3,0.227131,12.363,0,-34.1253,0,0,0.850077,0.252081,0,-0.031303,0,0,0.0728693,0.247214,0,-0.266075,0,0,0.22826,0.000174872,0,0.000314135,0,0,0.000221063
2.26,0.5,0.247977,0,0,-0.3,-0.268824,0,0,0,0,0.3,0.227187,12.364,0,-34.141,0,0,0.850163,0.252023,0,-0.031176,0,0,0.0728132,0.247262,0,-0.26618,0,0,0.228314,0.000174049,0,0.000283658,0,0,0.000221865
2.27,0.5,0.248034,0,0,-0.3,-0.268949,0,0,0,0,0.3,0.227242,12.365,0,-34.1566,0,0,0.850248,0.251966,0,-0.031051,0,0,0.0727582,0.247309,0,-0.266284,0,0,0.228366,0.000173213,0,0.000252884,0,0,0.000222664
2.28,0.5,0.248089,0,0,-0.3,-0.269072,0,0,0,0,0.3,0.227296,12.366,0,-34.1718,0,0,0.850332,0.251911,0,-0.0309278,0,0,0.0727041,0.247356,0,-0.266385,0,0,0.228418,0.000172363,0,0.000221816,0,0,0.000223461
2.29,0.5,0.248144,0,0,-0.3,-0.269194,0,0,0,0,0.3,0.227349,12.3669,0,-34.1869,0,0,0.850414,0.251856,0,-0.0308064,0,0,0.0726511,0.247401,0,-0.266485,0,0,0.228468,0.000171501,0,0.000190456,0,0,0.000224256
2.3,0.5,0.248198,0,0,-0.3,-0.269313,0,0,0,0,0.3,0.227401,12.3679,0,-34.2017,0,0,0.850494,0.251802,0,-0.0306868,0,0,0.0725991,0.247445,0,-0.266583,0,0,0.228518,0.000170626,0,0.000158806,0,0,0.000225049
2.31,0.5,0.24825,0,0,-0.3,-0.269431,0,0,0,0,0.3,0.227452,12.3688,0,-34.2163,0,0,0.850573,0.25175,0,-0.0305691,0,0,0.0725481,0.247489,0,-0.26668,0,0,0.228566,0.000169737,0,0.000126868,0,0,0.000225839
2.32,0.5,0.248302,0,0,-0.3,-0.269547,0,0,0,0,0.3,0.227502,12.3697,0,-34.2307,0,0,0.850651,0.251698,0,-0.0304531,0,0,0.0724981,0.247531,0,-0.266775,0,0,0.228614,0.000168837,0,9.46438e-05,0,0,0.000226628
2.33,0.5,0.248352,0,0,-0.3,-0.269661,0,0,0,0,0.3,0.227551,12.3706,0,-34.2449,0,0,0.850727,0.251648,0,-0.0303388,0,0,0.0724489,0.247573,0,-0.266868,0,0,0.228661,0.000167923,0,6.2136e-05,0,0,0.000227414
2.34,0.5,0.248402,0,0,-0.3,-0.269774,0,0,0,0,0.3,0.227599,12.3714,0,-34.2589,0,0,0.850802,0.251598,0,-0.0302262,0,0,0.0724008,0.247613,0,-0.26696,0,0,0.228706,0.000166997,0,2.93466e-05,0,0,0.000228198
2.35,0.5,0.24845,0,0,-0.3,-0.269885,0,0,0,0,0.3,0.227647,12.3723,0,-34.2726,0,0,0.850875,0.25155,0,-0.0301154,0,0,0.0723535,0.247653,0,-0.26705,0,0,0.228751,0.000166058,0,-3.7222e-06,0,0,0.00022898
2.36,0.5,0.248498,0,0,-0.3,-0.269994,0,0,0,0,0.3,0.227693,12.3731,0,-34.2862,0,0,0.850947,0.251502,0,-0.0300062,0,0,0.0723071,0.247692,0,-0.267139,0,0,0.228795,0.000165107,0,-3.70683e-05,0,0,0.00022976
2.37,0.5,0.248545,0,0,-0.3,-0.270101,0,0,0,0,0.3,0.227738,12.3739,0,-34.2995,0,0,0.851018,0.251455,0,-0.0298986,0,0,0.0722616,0.247729,0,-0.267226,0,0,0.228838,0.000164144,0,-7.06894e-05,0,0,0.000230538
2.38,0.5,0.248591,0,0,-0.3,-0.270207,0,0,0,0,0.3,0.227783,12.3747,0,-34.3126,0,0,0.851087,0.251409,0,-0.0297926,0,0,0.0722169,0.247767,0,-0.267312,0,0,0.228881,0.000163168,0,-0.000104583,0,0,0.000231314
2.39,0.5,0.248636,0,0,-0.3,-0.270312,0,0,0,0,0.3,0.227827,12.3755,0,-34.3256,0,0,0.851155,0.251364,0,-0.0296883,0,0,0.0721731,0.247803,0,-0.267396,0,0,0.228922,0.00016218,0,-0.000138748,0,0,0.000232087
2.4,0.5,0.24868,0,0,-0.3,-0.270414,0,0,0,0,0.3,0.22787,12.3763,0,-34.3383,0,0,0.851222,0.25132,0,-0.0295855,0,0,0.0721301,0.247838,0,-0.267479,0,0,0.228963,0.00016118,0,-0.00017318,0,0,0.000232859
2.41,0.5,0.248724,0,0,-0.3,-0.270516,0,0,0,0,0.3,0.227912,12.377,0,-34.3508,0,0,0.851288,0.251276,0,-0.0294843,0,0,0.0720879,0.247873,0,-0.267561,0,0,0.229003,0.000160168,0,-0.000207879,0,0,0.000233629
2.42,0.5,0.248766,0,0,-0.3,-0.270615,0,0,0,0,0.3,0.227953,12.3778,0,-34.3632,0,0,0.851352,0.251234,0,-0.0293846,0,0,0.0720465,0.247907,0,-0.267641,0,0,0.229042,0.000159144,0,-0.000242841,0,0,0.000234396
2.43,0.5,0.248808,0,0,-0.3,-0.270714,0,0,0,0,0.3,0.227994,12.3785,0,-34.3753,0,0,0.851415,0.251192,0,-0.0292864,0,0,0.0720059,0.24794,0,-0.26772,0,0,0.22908,0.000158108,0,-0.000278065,0,0,0.000235162
2.44,0.5,0.248849,0,0,-0.3,-0.27081,0,0,0,0,0.3,0.228034,12.3792,0,-34.3873,0,0,0.851477,0.251151,0,-0.0291897,0,0,0.0719661,0.247972,0,-0.267797,0,0,0.229117,0.00015706,0,-0.000313547,0,0,0.000235926
2.45,0.5,0.248889,0,0,-0.3,-0.270905,0,0,0,0,0.3,0.228073,12.3799,0,-34.3991,0,0,0.851538,0.251111,0,-0.0290945,0,0,0.071927,0.248004,0,-0.267874,0,0,0.229154,0.000156001,0,-0.000349286,0,0,0.000236688
2.46,0.5,0.248928,0,0,-0.3,-0.270999,0,0,0,0,0.3,0.228111,12.3806,0,-34.4107,0,0,0.851597,0.251072,0,-0.0290008,0,0,0.0718887,0.248035,0,-0.267949,0,0,0.22919,0.00015493,0,-0.000385278,0,0,0.000237447
2.47,0.5,0.248967,0,0,-0.3,-0.271092,0,0,0,0,0.3,0.228149,12.3812,0,-34.4221,0,0,0.851656,0.251033,0,-0.0289084,0,0,0.071851,0.248065,0,-0.268022,0,0,0.229226,0.000153848,0,-0.000421522,0,0,0.000238205
2.48,0.5,0.249005,0,0,-0.3,-0.271182,0,0,0,0,0.3,0.228186,12.3819,0,-34.4333,0,0,0.851713,0.250995,0,-0.0288175,0,0,0.0718141,0.248094,0,-0.268095,0,0,0.22926,0.000152754,0,-0.000458016,0,0,0.000238961
2.49,0.5,0.249042,0,0,-0.3,-0.271272,0,0,0,0,0.3,0.228222,12.3825,0,-34.4444,0,0,0.85177,0.250958,0,-0.028728,0,0,0.0717779,0.248123,0,-0.268166,0,0,0.229294,0.000151648,0,-0.000494756,0,0,0.000239715
2.5,0.5,0.249079,0,0,-0.3,-0.27136,0,0,0,0,0.3,0.228258,12.3832,0,-34.4553,0,0,0.851825,0.250921,0,-0.0286398,0,0,0.0717424,0.248152,0,-0.268236,0,0,0.229328,0.000150532,0,-0.00053174,0,0,0.000240468
2.51,0.5,0.249114,0,0,-0.3,-0.271447,0,0,0,0,0.3,0.228292,12.3838,0,-34.466,0,0,0.851879,0.250886,0,-0.0285531,0,0,0.0717075,0.248179,0,-0.268305,0,0,0.22936,0.000149404,0,-0.000568965,0,0,0.000241218
2.52,0.5,0.249149,0,0,-0.3,-0.271532,0,0,0,0,0.3,0.228327,12.3844,0,-34.4765,0,0,0.851932,0.250851,0,-0.0284676,0,0,0.0716733,0.248206,0,-0.268373,0,0,0.229392,0.000148265,0,-0.00060643,0,0,0.000241966
2.53,0.5,0.249184,0,0,-0.3,-0.271617,0,0,0,0,0.3,0.22836,12.385,0,-34.4869,0,0,0.851984,0.250816,0,-0.0283835,0,0,0.0716398,0.248232,0,-0.26844,0,0,0.229424,0.000147115,0,-0.000644131,0,0,0.000242713
2.54,0.5,0.249218,0,0,-0.3,-0.271699,0,0,0,0,0.3,0.228393,12.3855,0,-34.4971,0,0,0.852035,0.250782,0,-0.0283007,0,0,0.0716068,0.248258,0,-0.268505,0,0,0.229455,0.000145954,0,-0.000682065,0,0,0.000243458
2.55,0.5,0.249251,0,0,-0.3,-0.271781,0,0,0,0,0.3,0.228425,12.3861,0,-34.5071,0,0,0.852085,0.250749,0,-0.0282191,0,0,0.0715745,0.248283,0,-0.268569,0,0,0.229485,0.000144782,0,-0.000720231,0,0,0.000244201
2.56,0.5,0.249283,0,0,-0.3,-0.271861,0,0,0,0,0.3,0.228457,12.3866,0,-34.517,0,0,0.852134,0.250717,0,-0.0281389,0,0,0.0715429,0.248308,0,-0.268633,0,0,0.229514,0.0001436,0,-0.000758626,0,0,0.000244943
2.57,0.5,0.249315,0,0,-0.3,-0.27194,0,0,0,0,0.3,0.228488,12.3872,0,-34.5267,0,0,0.852182,0.250685,0,-0.0280599,0,0,0.0715118,0.248332,0,-0.268695,0,0,0.229543,0.000142407,0,-0.000797246,0,0,0.000245682
2.58,0.5,0.249346,0,0,-0.3,-0.272018,0,0,0,0,0.3,0.228519,12.3877,0,-34.5362,0,0,0.852229,0.250654,0,-0.0279821,0,0,0.0714813,0.248355,0,-0.268756,0,0,0.229572,0.000141203,0,-0.00083609,0,0,0.00024642
2.59,0.5,0.249377,0,0,-0.3,-0.272094,0,0,0,0,0.3,0.228549,12.3882,0,-34.5456,0,0,0.852275,0.250623,0,-0.0279056,0,0,0.0714514,0.248378,0,-0.268816,0,0,0.2296,0.000139989,0,-0.000875154,0,0,0.000247156
2.6,0.5,0.249407,0,0,-0.3,-0.27217,0,0,0,0,0.3,0.228578,12.3887,0,-34.5549,0,0,0.85232,0.250593,0,-0.0278302,0,0,0.071422,0.2484,0,-0.268875,0,0,0.229627,0.000138764,0,-0.000914436,0,0,0.000247891
2.61,0.5,0.249436,0,0,-0.3,-0.272244,0,0,0,0,0.3,0.228607,12.3892,0,-34.5639,0,0,0.852365,0.250564,0,-0.0277561,0,0,0.0713932,0.248422,0,-0.268934,0,0,0.229654,0.000137529,0,-0.000953933,0,0,0.000248624
2.62,0.5,0.249465,0,0,-0.3,-0.272317,0,0,0,0,0.3,0.228635,12.3897,0,-34.5729,0,0,0.852408,0.250535,0,-0.0276832,0,0,0.071365,0.248443,0,-0.268991,0,0,0.22968,0.000136284,0,-0.000993643,0,0,0.000249355
2.63,0.5,0.249494,0,0,-0.3,-0.272389,0,0,0,0,0.3,0.228663,12.3901,0,-34.5816,0,0,0.852451,0.250506,0,-0.0276114,0,0,0.0713373,0.248464,0,-0.269047,0,0,0.229706,0.000135028,0,-0.00103356,0,0,0.000250084
2.64,0.5,0.249521,0,0,-0.3,-0.272459,0,0,0,0,0.3,0.22869,12.3906,0,-34.5903,0,0,0.852492,0.250479,0,-0.0275407,0,0,0.0713101,0.248485,0,-0.269102,0,0,0.229731,0.000133763,0,-0.00107369,0,0,0.000250812
2.65,0.5,0.249548,0,0,-0.3,-0.272529,0,0,0,0,0.3,0.228717,12.391,0,-34.5988,0,0,0.852533,0.250452,0,-0.0274712,0,0,0.0712834,0.248504,0,-0.269157,0,0,0.229756,0.000132488,0,-0.00111402,0,0,0.000251539
2.66,0.5,0.249575,0,0,-0.3,-0.272597,0,0,0,0,0.3,0.228743,12.3915,0,-34.6071,0,0,0.852573,0.250425,0,-0.0274028,0,0,0.0712573,0.248524,0,-0.26921,0,0,0.22978,0.000131203,0,-0.00115455,0,0,0.000252263
2.67,0.5,0.249601,0,0,-0.3,-0.272664,0,0,0,0,0.3,0.228768,12.3919,0,-34.6153,0,0,0.852612,0.250399,0,-0.0273355,0,0,0.0712316,0.248543,0,-0.269263,0,0,0.229804,0.000129908,0,-0.00119528,0,0,0.000252987
2.68,0.5,0.249627,0,0,-0.3,-0.272731,0,0,0,0,0.3,0.228794,12.3923,0,-34.6233,0,0,0.852651,0.250373,0,-0.0272693,0,0,0.0712064,0.248561,0,-0.269314,0,0,0.229827,0.000128603,0,-0.0012362,0,0,0.000253708
2.69,0.5,0.249652,0,0,-0.3,-0.272796,0,0,0,0,0.3,0.228818,12.3927,0,-34.6312,0,0,0.852688,0.250348,0,-0.0272042,0,0,0.0711817,0.248579,0,-0.269365,0,0,0.22985,0.000127289,0,-0.00127732,0,0,0.000254428
2.7,0.5,0.249677,0,0,-0.3,-0.27286,0,0,0,0,0.3,0.228842,12.3931,0,-34.639,0,0,0.852725,0.250323,0,-0.0271402,0,0,0.0711575,0.248597,0,-0.269415,0,0,0.229872,0.000125965,0,-0.00131863,0,0,0.000255147
2.71,0.5,0.249701,0,0,-0.3,-0.272923,0,0,0,0,0.3,0.228866,12.3935,0,-34.6466,0,0,0.852761,0.250299,0,-0.0270772,0,0,0.0711338,0.248614,0,-0.269464,0,0,0.229894,0.000124632,0,-0.00136012,0,0,0.000255864
2.72,0.5,0.249725,0,0,-0.3,-0.272985,0,0,0,0,0.3,0.22889,12.3938,0,-34.6541,0,0,0.852796,0.250275,0,-0.0270153,0,0,0.0711105,0.248631,0,-0.269513,0,0,0.229916,0.00012329,0,-0.0014018,0,0,0.00025658
2.73,0.5,0.249748,0,0,-0.3,-0.273046,0,0,0,0,0.3,0.228912,12.3942,0,-34.6615,0,0,0.852831,0.250252,0,-0.0269543,0,0,0.0710876,0.248647,0,-0.26956,0,0,0.229937,0.000121938,0,-0.00144366,0,0,0.000257294
2.74,0.5,0.249771,0,0,-0.3,-0.273106,0,0,0,0,0.3,0.228935,12.3945,0,-34.6687,0,0,0.852864,0.250229,0,-0.0268944,0,0,0.0710652,0.248663,0,-0.269607,0,0,0.229958,0.000120577,0,-0.0014857,0,0,0.000258007
2.75,0.5,0.249793,0,0,-0.3,-0.273164,0,0,0,0,0.3,0.228957,12.3949,0,-34.6758,0,0,0.852897,0.250207,0,-0.0268355,0,0,0.0710432,0.248679,0,-0.269653,0,0,0.229978,0.000119207,0,-0.00152791,0,0,0.000258718
2.76,0.5,0.249815,0,0,-0.3,-0.273222,0,0,0,0,0.3,0.228978,12.3952,0,-34.6827,0,0,0.852929,0.250185,0,-0.0267776,0,0,0.0710216,0.248694,0,-0.269698,0,0,0.229998,0.000117829,0,-0.00157029,0,0,0.000259428
2.77,0.5,0.249836,0,0,-0.3,-0.273279,0,0,0,0,0.3,0.229,12.3955,0,-34.6895,0,0,0.852961,0.250164,0,-0.0267207,0,0,0.0710005,0.248709,0,-0.269742,0,0,0.230017,0.000116441,0,-0.00161285,0,0,0.000260136
2.78,0.5,0.249857,0,0,-0.3,-0.273335,0,0,0,0,0.3,0.22902,12.3959,0,-34.6962,0,0,0.852992,0.250143,0,-0.0266648,0,0,0.0709797,0.248723,0,-0.269786,0,0,0.230036,0.000115045,0,-0.00165557,0,0,0.000260843
2.79,0.5,0.249878,0,0,-0.3,-0.27339,0,0,0,0,0.3,0.229041,12.3962,0,-34.7028,0,0,0.853022,0.250122,0,-0.0266098,0,0,0.0709594,0.248737,0,-0.269829,0,0,0.230055,0.00011364,0,-0.00169845,0,0,0.000261549
2.8,0.5,0.249898,0,0,-0.3,-0.273444,0,0,0,0,0.3,0.229061,12.3965,0,-34.7092,0,0,0.853052,0.250102,0,-0.0265557,0,0,0.0709395,0.248751,0,-0.269871,0,0,0.230074,0.000112227,0,-0.00174149,0,0,0.000262254
2.81,0.5,0.249918,0,0,-0.3,-0.273497,0,0,0,0,0.3,0.22908,12.3967,0,-34.7156,0,0,0.85308,0.250082,0,-0.0265026,0,0,0.0709199,0.248765,0,-0.269912,0,0,0.230092,0.000110805,0,-0.00178469,0,0,0.000262957
2.82,0.5,0.249937,0,0,-0.3,-0.27355,0,0,0,0,0.3,0.229099,12.397,0,-34.7218,0,0,0.853108,0.250063,0,-0.0264504,0,0,0.0709007,0.248778,0,-0.269953,0,0,0.230109,0.000109375,0,-0.00182805,0,0,0.000263659
2.83,0.5,0.249956,0,0,-0.3,-0.273601,0,0,0,0,0.3,0.229118,12.3973,0,-34.7278,0,0,0.853136,0.250044,0,-0.0263991,0,0,0.0708819,0.24879,0,-0.269993,0,0,0.230126,0.000107936,0,-0.00187155,0,0,0.00026436
2.84,0.5,0.249975,0,0,-0.3,-0.273651,0,0,0,0,0.3,0.229137,12.3975,0,-34.7338,0,0,0.853163,0.250025,0,-0.0263487,0,0,0.0708634,0.248803,0,-0.270033,0,0,0.230143,0.00010649,0,-0.00191521,0,0,0.000265059
2.85,0.5,0.249993,0,0,-0.3,-0.273701,0,0,0,0,0.3,0.229155,12.3978,0,-34.7396,0,0,0.853189,0.250007,0,-0.0262993,0,0,0.0708454,0.248815,0,-0.270071,0,0,0.23016,0.000105035,0,-0.001959,0,0,0.000265757
2.86,0.5,0.250011,0,0,-0.3,-0.273749,0,0,0,0,0.3,0.229172,12.398,0,-34.7453,0,0,0.853215,0.249989,0,-0.0262507,0,0,0.0708276,0.248827,0,-0.270109,0,0,0.230176,0.000103572,0,-0.00200294,0,0,0.000266454
2.87,0.5,0.250028,0,0,-0.3,-0.273797,0,0,0,0,0.3,0.22919,12.3983,0,-34.7509,0,0,0.85324,0.249972,0,-0.026203,0,0,0.0708102,0.248838,0,-0.270147,0,0,0.230192,0.000102102,0,-0.00204702,0,0,0.00026715
2.88,0.5,0.250045,0,0,-0.3,-0.273844,0,0,0,0,0.3,0.229207,12.3985,0,-34.7564,0,0,0.853264,0.249955,0,-0.0261561,0,0,0.0707932,0.24885,0,-0.270184,0,0,0.230208,0.000100624,0,-0.00209123,0,0,0.000267845
2.89,0.5,0.250062,0,0,-0.3,-0.27389,0,0,0,0,0.3,0.229224,12.3987,0,-34.7618,0,0,0.853288,0.249938,0,-0.0261101,0,0,0.0707765,0.248861,0,-0.27022,0,0,0.230223,9.91378e-05,0,-0.00213558,0,0,0.000268539
2.9,0.5,0.250078,0,0,-0.3,-0.273935,0,0,0,0,0.3,0.22924,12.3989,0,-34.7671,0,0,0.853311,0.249922,0,-0.0260649,0,0,0.0707601,0.248871,0,-0.270255,0,0,0.230238,9.76444e-05,0,-0.00218005,0,0,0.000269231
2.91,0.5,0.250094,0,0,-0.3,-0.273979,0,0,0,0,0.3,0.229256,12.3991,0,-34.7722,0,0,0.853334,0.249906,0,-0.0260206,0,0,0.070744,0.248882,0,-0.27029,0,0,0.230253,9.61434e-05,0,-0.00222465,0,0,0.000269922
2.92,0.5,0.25011,0,0,-0.3,-0.274023,0,0,0,0,0.3,0.229272,12.3993,0,-34.7772,0,0,0.853356,0.24989,0,-0.0259771,0,0,0.0707282,0.248892,0,-0.270325,0,0,0.230267,9.46352e-05,0,-0.00226938,0,0,0.000270612
2.93,0.5,0.250126,0,0,-0.3,-0.274066,0,0,0,0,0.3,0.229287,12.3995,0,-34.7821,0,0,0.853377,0.249874,0,-0.0259344,0,0,0.0707128,0.248902,0,-0.270359,0,0,0.230282,9.31197e-05,0,-0.00231422,0,0,0.000271302
2.94,0.5,0.250141,0,0,-0.3,-0.274107,0,0,0,0,0.3,0.229302,12.3997,0,-34.787,0,0,0.853398,0.249859,0,-0.0258925,0,0,0.0706977,0.248912,0,-0.270392,0,0,0.230295,9.1597e-05,0,-0.00235918,0,0,0.00027199
2.95,0.5,0.250155,0,0,-0.3,-0.274149,0,0,0,0,0.3,0.229317,12.3999,0,-34.7917,0,0,0.853419,0.249845,0,-0.0258515,0,0,0.0706828,0.248921,0,-0.270425,0,0,0.230309,9.00672e-05,0,-0.00240425,0,0,0.000272677
2.96,0.5,0.25017,0,0,-0.3,-0.274189,0,0,0,0,0.3,0.229332,12.4,0,-34.7963,0,0,0.853439,0.24983,0,-0.0258112,0,0,0.0706683,0.24893,0,-0.270457,0,0,0.230322,8.85305e-05,0,-0.00244943,0,0,0.000273363
2.97,0.5,0.250184,0,0,-0.3,-0.274228,0,0,0,0,0.3,0.229346,12.4002,0,-34.8007,0,0,0.853458,0.249816,0,-0.0257717,0,0,0.070654,0.248939,0,-0.270488,0,0,0.230335,8.69869e-05,0,-0.00249472,0,0,0.000274048
