time,des_surge,act_surge,des_sway,act_sway,des_heave,act_heave,des_roll,act_roll,des_pitch,act_pitch,des_yaw,act_yaw,wrench_surge,wrench_sway,wrench_heave,wrench_roll,wrench_pitch,wrench_yaw,err_surge,err_sway,err_heave,err_roll,err_pitch,err_yaw
0,0.5,0.0177139,0,0,-0.3,-0.0174498,0,0,0,0,0.3,0.0241172,47.8275,0,-47.1144,0,0,5.10319,0.482286,0,-0.28255,0,0,0.275883
0.01,0.5,0.0344322,0,0,-0.3,-0.0326206,0,0,0,0,0.3,0.0459449,45.6975,0,-42.5591,0,0,4.6687,0.465568,0,-0.267379,0,0,0.254055
0.02,0.5,0.0502024,0,0,-0.3,-0.0458209,0,0,0,0,0.3,0.0656657,43.709,0,-38.6957,0,0,4.27605,0.449798,0,-0.254179,0,0,0.234334
0.03,0.5,0.0650709,0,0,-0.3,-0.0573152,0,0,0,0,0.3,0.0834542,41.8525,0,-35.4076,0,0,3.92178,0.434929,0,-0.242685,0,0,0.216546
0.04,0.5,0.0790825,0,0,-0.3,-0.0673301,0,0,0,0,0.3,0.0994717,40.1194,0,-32.6001,0,0,3.60163,0.420917,0,-0.23267,0,0,0.200528
0.05,0.5,0.0922809,0,0,-0.3,-0.0760608,0,0,0,0,0.3,0.113842,38.5014,0,-30.1961,0,0,3.30645,0.407719,0,-0.223939,0,0,0.186158
0.06,0.5,0.104708,0,0,-0.3,-0.0836757,0,0,0,0,0.3,0.126718,36.9909,0,-28.1325,0,0,3.04195,0.395292,0,-0.216324,0,0,0.173282
0.07,0.5,0.116404,0,0,-0.3,-0.0903201,0,0,0,0,0.3,0.138245,35.5807,0,-26.3571,0,0,2.80519,0.383596,0,-0.20968,0,0,0.161755
0.08,0.5,0.127408,0,0,-0.3,-0.0961198,0,0,0,0,0.3,0.148553,34.264,0,-24.8265,0,0,2.59345,0.372592,0,-0.20388,0,0,0.151447
0.09,0.5,0.137758,0,0,-0.3,-0.101184,0,0,0,0,0.3,0.157765,33.0347,0,-23.5046,0,0,2.40425,0.362242,0,-0.198816,0,0,0.142235
0.1,0.5,0.147488,0,0,-0.3,-0.105607,0,0,0,0,0.3,0.16599,31.8869,0,-22.3612,0,0,2.23531,0.352512,0,-0.194393,0,0,0.13401
0.11,0.5,0.156634,0,0,-0.3,-0.10947,0,0,0,0,0.3,0.173329,30.8151,0,-21.3708,0,0,2.08457,0.343366,0,-0.19053,0,0,0.126671
0.12,0.5,0.165227,0,0,-0.3,-0.112846,0,0,0,0,0.3,0.179873,29.8142,0,-20.5119,0,0,1.95015,0.334773,0,-0.187154,0,0,0.120127
0.13,0.5,0.1733,0,0,-0.3,-0.115797,0,0,0,0,0.3,0.185706,28.8795,0,-19.7661,0,0,1.83035,0.3267,0,-0.184203,0,0,0.114294
0.14,0.5,0.180881,0,0,-0.3,-0.118376,0,0,0,0,0.3,0.190903,28.0066,0,-19.1181,0,0,1.72361,0.319119,0,-0.181624,0,0,0.109097
0.15,0.5,0.187999,0,0,-0.3,-0.12063,0,0,0,0,0.3,0.195531,27.1913,0,-18.5544,0,0,1.62857,0.312001,0,-0.17937,0,0,0.104469
0.16,0.5,0.19468,0,0,-0.3,-0.122602,0,0,0,0,0.3,0.19965,26.4297,0,-18.0638,0,0,1.54397,0.30532,0,-0.177398,0,0,0.10035
0.17,0.5,0.200951,0,0,-0.3,-0.124325,0,0,0,0,0.3,0.203315,25.7183,0,-17.6365,0,0,1.46869,0.299049,0,-0.175675,0,0,0.0966847
0.18,0.5,0.206834,0,0,-0.3,-0.125833,0,0,0,0,0.3,0.206576,25.0537,0,-17.2641,0,0,1.40172,0.293166,0,-0.174167,0,0,0.093424
0.19,0.5,0.212354,0,0,-0.3,-0.127151,0,0,0,0,0.3,0.209476,24.4329,0,-16.9394,0,0,1.34216,0.287646,0,-0.172849,0,0,0.0905241
0.2,0.5,0.217531,0,0,-0.3,-0.128304,0,0,0,0,0.3,0.212054,23.8528,0,-16.6561,0,0,1.28921,0.282469,0,-0.171696,0,0,0.0879457
0.21,0.5,0.222386,0,0,-0.3,-0.129312,0,0,0,0,0.3,0.214346,23.3108,0,-16.4089,0,0,1.24213,0.277614,0,-0.170688,0,0,0.0856536
0.22,0.5,0.226938,0,0,-0.3,-0.130194,0,0,0,0,0.3,0.216383,22.8044,0,-16.1932,0,0,1.20029,0.273062,0,-0.169806,0,0,0.0836165
0.23,0.5,0.231206,0,0,-0.3,-0.130966,0,0,0,0,0.3,0.218194,22.3312,0,-16.0048,0,0,1.16312,0.268794,0,-0.169034,0,0,0.0818063
0.24,0.5,0.235206,0,0,-0.3,-0.131641,0,0,0,0,0.3,0.219802,21.8889,0,-15.8402,0,0,1.13008,0.264794,0,-0.168359,0,0,0.0801978
0.25,0.5,0.238956,0,0,-0.3,-0.132231,0,0,0,0,0.3,0.221231,21.4756,0,-15.6964,0,0,1.10074,0.261044,0,-0.167769,0,0,0.078769
0.26,0.5,0.24247,0,0,-0.3,-0.132748,0,0,0,0,0.3,0.2225,21.0893,0,-15.5708,0,0,1.07467,0.25753,0,-0.167252,0,0,0.0774997
0.27,0.5,0.245763,0,0,-0.3,-0.1332,0,0,0,0,0.3,0.223628,20.7283,0,-15.461,0,0,1.05152,0.254237,0,-0.1668,0,0,0.0763724
0.28,0.5,0.248848,0,0,-0.3,-0.133596,0,0,0,0,0.3,0.224629,20.3908,0,-15.365,0,0,1.03096,0.251152,0,-0.166404,0,0,0.0753712
0.29,0.5,0.251738,0,0,-0.3,-0.133942,0,0,0,0,0.3,0.225518,20.0753,0,-15.2811,0,0,1.0127,0.248262,0,-0.166058,0,0,0.0744822
0.3,0.5,0.254446,0,0,-0.3,-0.134244,0,0,0,0,0.3,0.226307,19.7805,0,-15.2077,0,0,0.996484,0.245554,0,-0.165756,0,0,0.0736927
0.31,0.5,0.256982,0,0,-0.3,-0.134509,0,0,0,0,0.3,0.227008,19.5048,0,-15.1436,0,0,0.982088,0.243018,0,-0.165491,0,0,0.0729918
0.32,0.5,0.259357,0,0,-0.3,-0.134741,0,0,0,0,0.3,0.227631,19.2471,0,-15.0875,0,0,0.969307,0.240643,0,-0.165259,0,0,0.0723694
0.33,0.5,0.261582,0,0,-0.3,-0.134944,0,0,0,0,0.3,0.228183,19.0061,0,-15.0384,0,0,0.957959,0.238418,0,-0.165056,0,0,0.0718169
0.34,0.5,0.263665,0,0,-0.3,-0.135121,0,0,0,0,0.3,0.228674,18.7809,0,-14.9955,0,0,0.947885,0.236335,0,-0.164879,0,0,0.0713264
0.35,0.5,0.265616,0,0,-0.3,-0.135276,0,0,0,0,0.3,0.229109,18.5703,0,-14.958,0,0,0.938942,0.234384,0,-0.164724,0,0,0.0708909
0.36,0.5,0.267443,0,0,-0.3,-0.135412,0,0,0,0,0.3,0.229496,18.3734,0,-14.9252,0,0,0.931003,0.232557,0,-0.164588,0,0,0.0705043
0.37,0.5,0.269153,0,0,-0.3,-0.135531,0,0,0,0,0.3,0.229839,18.1892,0,-14.8964,0,0,0.923956,0.230847,0,-0.164469,0,0,0.0701612
0.38,0.5,0.270755,0,0,-0.3,-0.135635,0,0,0,0,0.3,0.230143,18.0171,0,-14.8713,0,0,0.917701,0.229245,0,-0.164365,0,0,0.0698566
0.39,0.5,0.272254,0,0,-0.3,-0.135726,0,0,0,0,0.3,0.230414,17.8561,0,-14.8493,0,0,0.912149,0.227746,0,-0.164274,0,0,0.0695863
0.4,0.5,0.273657,0,0,-0.3,-0.135806,0,0,0,0,0.3,0.230654,17.7055,0,-14.8301,0,0,0.907221,0.226343,0,-0.164194,0,0,0.0693463
0.41,0.5,0.274971,0,0,-0.3,-0.135876,0,0,0,0,0.3,0.230867,17.5648,0,-14.8133,0,0,0.902847,0.225029,0,-0.164124,0,0,0.0691333
0.42,0.5,0.276201,0,0,-0.3,-0.135937,0,0,0,0,0.3,0.231056,17.4331,0,-14.7986,0,0,0.898964,0.223799,0,-0.164063,0,0,0.0689443
0.43,0.5,0.277352,0,0,-0.3,-0.13599,0,0,0,0,0.3,0.231223,17.31,0,-14.7857,0,0,0.895513,0.222648,0,-0.16401,0,0,0.0687765
0.44,0.5,0.278429,0,0,-0.3,-0.136037,0,0,0,0,0.3,0.231372,17.1949,0,-14.7744,0,0,0.892439,0.221571,0,-0.163963,0,0,0.0686277
0.45,0.5,0.279437,0,0,-0.3,-0.136077,0,0,0,0,0.3,0.231504,17.0872,0,-14.7646,0,0,0.889701,0.220563,0,-0.163923,0,0,0.0684957
0.46,0.5,0.280381,0,0,-0.3,-0.136113,0,0,0,0,0.3,0.231621,16.9865,0,-14.7559,0,0,0.887263,0.219619,0,-0.163887,0,0,0.0683788
0.47,0.5,0.281265,0,0,-0.3,-0.136145,0,0,0,0,0.3,0.231725,16.8923,0,-14.7484,0,0,0.88509,0.218735,0,-0.163855,0,0,0.0682751
0.48,0.5,0.282091,0,0,-0.3,-0.136172,0,0,0,0,0.3,0.231817,16.8042,0,-14.7418,0,0,0.883155,0.217909,0,-0.163828,0,0,0.0681834
0.49,0.5,0.282865,0,0,-0.3,-0.136196,0,0,0,0,0.3,0.231898,16.7218,0,-14.736,0,0,0.88143,0.217135,0,-0.163804,0,0,0.0681022
0.5,0.5,0.283589,0,0,-0.3,-0.136217,0,0,0,0,0.3,0.23197,16.6448,0,-14.7309,0,0,0.879893,0.216411,0,-0.163783,0,0,0.0680305
0.51,0.5,0.284267,0,0,-0.3,-0.136235,0,0,0,0,0.3,0.232033,16.5727,0,-14.7265,0,0,0.878523,0.215733,0,-0.163765,0,0,0.0679671
0.52,0.5,0.284901,0,0,-0.3,-0.136251,0,0,0,0,0.3,0.232089,16.5053,0,-14.7226,0,0,0.877301,0.215099,0,-0.163749,0,0,0.0679111
0.53,0.5,0.285494,0,0,-0.3,-0.136265,0,0,0,0,0.3,0.232138,16.4423,0,-14.7193,0,0,0.876212,0.214506,0,-0.163735,0,0,0.0678618
0.54,0.5,0.286049,0,0,-0.3,-0.136278,0,0,0,0,0.3,0.232182,16.3833,0,-14.7163,0,0,0.87524,0.213951,0,-0.163722,0,0,0.0678183
0.55,0.5,0.286569,0,0,-0.3,-0.136288,0,0,0,0,0.3,0.23222,16.3281,0,-14.7137,0,0,0.874373,0.213431,0,-0.163712,0,0,0.0677801
0.56,0.5,0.287055,0,0,-0.3,-0.136298,0,0,0,0,0.3,0.232253,16.2765,0,-14.7114,0,0,0.873599,0.212945,0,-0.163702,0,0,0.0677466
0.57,0.5,0.28751,0,0,-0.3,-0.136306,0,0,0,0,0.3,0.232283,16.2283,0,-14.7094,0,0,0.872908,0.21249,0,-0.163694,0,0,0.0677172
0.58,0.5,0.287935,0,0,-0.3,-0.136313,0,0,0,0,0.3,0.232308,16.1831,0,-14.7077,0,0,0.872291,0.212065,0,-0.163687,0,0,0.0676915
0.59,0.5,0.288333,0,0,-0.3,-0.136319,0,0,0,0,0.3,0.232331,16.1409,0,-14.7062,0,0,0.87174,0.211667,0,-0.163681,0,0,0.0676691
0.6,0.5,0.288706,0,0,-0.3,-0.136325,0,0,0,0,0.3,0.23235,16.1014,0,-14.7049,0,0,0.871247,0.211294,0,-0.163675,0,0,0.0676497
0.61,0.5,0.289055,0,0,-0.3,-0.13633,0,0,0,0,0.3,0.232367,16.0645,0,-14.7037,0,0,0.870806,0.210945,0,-0.16367,0,0,0.0676328
0.62,0.5,0.289381,0,0,-0.3,-0.136334,0,0,0,0,0.3,0.232382,16.0299,0,-14.7027,0,0,0.870411,0.210619,0,-0.163666,0,0,0.0676182
0.63,0.5,0.289686,0,0,-0.3,-0.136338,0,0,0,0,0.3,0.232394,15.9976,0,-14.7018,0,0,0.870058,0.210314,0,-0.163662,0,0,0.0676057
0.64,0.5,0.289972,0,0,-0.3,-0.136341,0,0,0,0,0.3,0.232405,15.9674,0,-14.701,0,0,0.869741,0.210028,0,-0.163659,0,0,0.067595
0.65,0.5,0.290239,0,0,-0.3,-0.136344,0,0,0,0,0.3,0.232414,15.9391,0,-14.7003,0,0,0.869457,0.209761,0,-0.163656,0,0,0.0675859
0.66,0.5,0.290489,0,0,-0.3,-0.136346,0,0,0,0,0.3,0.232422,15.9126,0,-14.6997,0,0,0.869201,0.209511,0,-0.163654,0,0,0.0675783
0.67,0.5,0.290723,0,0,-0.3,-0.136348,0,0,0,0,0.3,0.232428,15.8879,0,-14.6992,0,0,0.868972,0.209277,0,-0.163652,0,0,0.067572
0.68,0.5,0.290942,0,0,-0.3,-0.13635,0,0,0,0,0.3,0.232433,15.8647,0,-14.6987,0,0,0.868766,0.209058,0,-0.16365,0,0,0.0675668
0.69,0.5,0.291146,0,0,-0.3,-0.136352,0,0,0,0,0.3,0.232437,15.8431,0,-14.6983,0,0,0.86858,0.208854,0,-0.163648,0,0,0.0675626
0.7,0.5,0.291338,0,0,-0.3,-0.136353,0,0,0,0,0.3,0.232441,15.8228,0,-14.698,0,0,0.868412,0.208662,0,-0.163647,0,0,0.0675594
0.71,0.5,0.291517,0,0,-0.3,-0.136355,0,0,0,0,0.3,0.232443,15.8039,0,-14.6977,0,0,0.868261,0.208483,0,-0.163645,0,0,0.0675569
0.72,0.5,0.291685,0,0,-0.3,-0.136356,0,0,0,0,0.3,0.232445,15.7862,0,-14.6974,0,0,0.868124,0.208315,0,-0.163644,0,0,0.0675551
0.73,0.5,0.291842,0,0,-0.3,-0.136357,0,0,0,0,0.3,0.232446,15.7696,0,-14.6972,0,0,0.868,0.208158,0,-0.163643,0,0,0.067554
0.74,0.5,0.291988,0,0,-0.3,-0.136358,0,0,0,0,0.3,0.232447,15.7541,0,-14.697,0,0,0.867887,0.208012,0,-0.163642,0,0,0.0675534
0.75,0.5,0.292126,0,0,-0.3,-0.136358,0,0,0,0,0.3,0.232447,15.7396,0,-14.6968,0,0,0.867784,0.207874,0,-0.163642,0,0,0.0675534
0.76,0.5,0.292254,0,0,-0.3,-0.136359,0,0,0,0,0.3,0.232446,15.726,0,-14.6966,0,0,0.867691,0.207746,0,-0.163641,0,0,0.0675538
0.77,0.5,0.292374,0,0,-0.3,-0.13636,0,0,0,0,0.3,0.232445,15.7133,0,-14.6965,0,0,0.867606,0.207626,0,-0.16364,0,0,0.0675545
0.78,0.5,0.292487,0,0,-0.3,-0.13636,0,0,0,0,0.3,0.232444,15.7014,0,-14.6964,0,0,0.867528,0.207513,0,-0.16364,0,0,0.0675556
0.79,0.5,0.292592,0,0,-0.3,-0.136361,0,0,0,0,0.3,0.232443,15.6903,0,-14.6963,0,0,0.867456,0.207408,0,-0.163639,0,0,0.0675571
0.8,0.5,0.29269,0,0,-0.3,-0.136361,0,0,0,0,0.3,0.232441,15.6799,0,-14.6962,0,0,0.86739,0.20731,0,-0.163639,0,0,0.0675588
0.81,0.5,0.292782,0,0,-0.3,-0.136361,0,0,0,0,0.3,0.232439,15.6702,0,-14.6961,0,0,0.867329,0.207218,0,-0.163639,0,0,0.0675607
0.82,0.5,0.292868,0,0,-0.3,-0.136362,0,0,0,0,0.3,0.232437,15.6611,0,-14.696,0,0,0.867272,0.207132,0,-0.163638,0,0,0.0675629
0.83,0.5,0.292949,0,0,-0.3,-0.136362,0,0,0,0,0.3,0.232435,15.6526,0,-14.696,0,0,0.86722,0.207051,0,-0.163638,0,0,0.0675653
0.84,0.5,0.293024,0,0,-0.3,-0.136362,0,0,0,0,0.3,0.232432,15.6446,0,-14.6959,0,0,0.867171,0.206976,0,-0.163638,0,0,0.0675678
0.85,0.5,0.293095,0,0,-0.3,-0.136362,0,0,0,0,0.3,0.23243,15.6372,0,-14.6959,0,0,0.867125,0.206905,0,-0.163638,0,0,0.0675705
0.86,0.5,0.293161,0,0,-0.3,-0.136362,0,0,0,0,0.3,0.232427,15.6302,0,-14.6958,0,0,0.867083,0.206839,0,-0.163638,0,0,0.0675733
0.87,0.5,0.293222,0,0,-0.3,-0.136363,0,0,0,0,0.3,0.232424,15.6237,0,-14.6958,0,0,0.867042,0.206778,0,-0.163637,0,0,0.0675762
0.88,0.5,0.29328,0,0,-0.3,-0.136363,0,0,0,0,0.3,0.232421,15.6176,0,-14.6958,0,0,0.867004,0.20672,0,-0.163637,0,0,0.0675792
0.89,0.5,0.293334,0,0,-0.3,-0.136363,0,0,0,0,0.3,0.232418,15.6119,0,-14.6957,0,0,0.866968,0.206666,0,-0.163637,0,0,0.0675823
0.9,0.5,0.293385,0,0,-0.3,-0.136363,0,0,0,0,0.3,0.232414,15.6065,0,-14.6957,0,0,0.866934,0.206615,0,-0.163637,0,0,0.0675855
0.91,0.5,0.293432,0,0,-0.3,-0.136363,0,0,0,0,0.3,0.232411,15.6016,0,-14.6957,0,0,0.866902,0.206568,0,-0.163637,0,0,0.0675888
0.92,0.5,0.293476,0,0,-0.3,-0.136363,0,0,0,0,0.3,0.232408,15.5969,0,-14.6957,0,0,0.866871,0.206524,0,-0.163637,0,0,0.0675921
0.93,0.5,0.293518,0,0,-0.3,-0.136363,0,0,0,0,0.3,0.232405,15.5925,0,-14.6957,0,0,0.866841,0.206482,0,-0.163637,0,0,0.0675955
0.94,0.5,0.293556,0,0,-0.3,-0.136363,0,0,0,0,0.3,0.232401,15.5884,0,-14.6956,0,0,0.866812,0.206444,0,-0.163637,0,0,0.0675989
0.95,0.5,0.293593,0,0,-0.3,-0.136363,0,0,0,0,0.3,0.232398,15.5846,0,-14.6956,0,0,0.866785,0.206407,0,-0.163637,0,0,0.0676023
0.96,0.5,0.293626,0,0,-0.3,-0.136363,0,0,0,0,0.3,0.232394,15.581,0,-14.6956,0,0,0.866758,0.206374,0,-0.163637,0,0,0.0676058
0.97,0.5,0.293658,0,0,-0.3,-0.136363,0,0,0,0,0.3,0.232391,15.5777,0,-14.6956,0,0,0.866732,0.206342,0,-0.163637,0,0,0.0676094
0.98,0.5,0.293688,0,0,-0.3,-0.136363,0,0,0,0,0.3,0.232387,15.5746,0,-14.6956,0,0,0.866707,0.206312,0,-0.163637,0,0,0.0676129
0.99,0.5,0.293715,0,0,-0.3,-0.136363,0,0,0,0,0.3,0.232384,15.5716,0,-14.6956,0,0,0.866683,0.206285,0,-0.163637,0,0,0.0676165
1,0.5,0.293741,0,0,-0.3,-0.136363,0,0,0,0,0.3,0.23238,15.5689,0,-14.6956,0,0,0.866659,0.206259,0,-0.163637,0,0,0.0676201
1.01,0.5,0.293766,0,0,-0.3,-0.136363,0,0,0,0,0.3,0.232376,15.5663,0,-14.6956,0,0,0.866635,0.206234,0,-0.163637,0,0,0.0676237
1.02,0.5,0.293788,0,0,-0.3,-0.136363,0,0,0,0,0.3,0.232373,15.5639,0,-14.6956,0,0,0.866612,0.206212,0,-0.163637,0,0,0.0676273
1.03,0.5,0.29381,0,0,-0.3,-0.136364,0,0,0,0,0.3,0.232369,15.5617,0,-14.6956,0,0,0.86659,0.20619,0,-0.163636,0,0,0.0676309
1.04,0.5,0.293829,0,0,-0.3,-0.136364,0,0,0,0,0.3,0.232365,15.5596,0,-14.6956,0,0,0.866568,0.206171,0,-0.163636,0,0,0.0676346
1.05,0.5,0.293848,0,0,-0.3,-0.136364,0,0,0,0,0.3,0.232362,15.5576,0,-14.6956,0,0,0.866546,0.206152,0,-0.163636,0,0,0.0676382
1.06,0.5,0.293865,0,0,-0.3,-0.136364,0,0,0,0,0.3,0.232358,15.5558,0,-14.6956,0,0,0.866525,0.206135,0,-0.163636,0,0,0.0676419
1.07,0.5,0.293882,0,0,-0.3,-0.136364,0,0,0,0,0.3,0.232354,15.5541,0,-14.6956,0,0,0.866504,0.206118,0,-0.163636,0,0,0.0676455
1.08,0.5,0.293897,0,0,-0.3,-0.136364,0,0,0,0,0.3,0.232351,15.5525,0,-14.6956,0,0,0.866483,0.206103,0,-0.163636,0,0,0.0676492
1.09,0.5,0.293911,0,0,-0.3,-0.136364,0,0,0,0,0.3,0.232347,15.551,0,-14.6956,0,0,0.866462,0.206089,0,-0.163636,0,0,0.0676528
1.1,0.5,0.293924,0,0,-0.3,-0.136364,0,0,0,0,0.3,0.232343,15.5496,0,-14.6955,0,0,0.866442,0.206076,0,-0.163636,0,0,0.0676565
1.11,0.5,0.293937,0,0,-0.3,-0.136364,0,0,0,0,0.3,0.23234,15.5483,0,-14.6955,0,0,0.866422,0.206063,0,-0.163636,0,0,0.0676602
1.12,0.5,0.293949,0,0,-0.3,-0.136364,0,0,0,0,0.3,0.232336,15.547,0,-14.6955,0,0,0.866402,0.206051,0,-0.163636,0,0,0.0676638
1.13,0.5,0.29396,0,0,-0.3,-0.136364,0,0,0,0,0.3,0.232333,15.5459,0,-14.6955,0,0,0.866382,0.20604,0,-0.163636,0,0,0.0676675
1.14,0.5,0.29397,0,0,-0.3,-0.136364,0,0,0,0,0.3,0.232329,15.5448,0,-14.6955,0,0,0.866362,0.20603,0,-0.163636,0,0,0.0676711
1.15,0.5,0.293979,0,0,-0.3,-0.136364,0,0,0,0,0.3,0.232325,15.5438,0,-14.6955,0,0,0.866343,0.206021,0,-0.163636,0,0,0.0676747
1.16,0.5,0.293988,0,0,-0.3,-0.136364,0,0,0,0,0.3,0.232322,15.5429,0,-14.6955,0,0,0.866323,0.206012,0,-0.163636,0,0,0.0676784
1.17,0.5,0.293997,0,0,-0.3,-0.136364,0,0,0,0,0.3,0.232318,15.542,0,-14.6955,0,0,0.866304,0.206003,0,-0.163636,0,0,0.067682
1.18,0.5,0.294004,0,0,-0.3,-0.136364,0,0,0,0,0.3,0.232314,15.5411,0,-14.6955,0,0,0.866285,0.205996,0,-0.163636,0,0,0.0676856
1.19,0.5,0.294012,0,0,-0.3,-0.136364,0,0,0,0,0.3,0.232311,15.5404,0,-14.6955,0,0,0.866266,0.205988,0,-0.163636,0,0,0.0676893
1.2,0.5,0.294018,0,0,-0.3,-0.136364,0,0,0,0,0.3,0.232307,15.5397,0,-14.6955,0,0,0.866247,0.205982,0,-0.163636,0,0,0.0676929
1.21,0.5,0.294025,0,0,-0.3,-0.136364,0,0,0,0,0.3,0.232304,15.539,0,-14.6955,0,0,0.866228,0.205975,0,-0.163636,0,0,0.0676965
1.22,0.5,0.294031,0,0,-0.3,-0.136364,0,0,0,0,0.3,0.2323,15.5383,0,-14.6955,0,0,0.866209,0.205969,0,-0.163636,0,0,0.0677001
1.23,0.5,0.294036,0,0,-0.3,-0.136364,0,0,0,0,0.3,0.232296,15.5378,0,-14.6955,0,0,0.86619,0.205964,0,-0.163636,0,0,0.0677037
1.24,0.5,0.294042,0,0,-0.3,-0.136364,0,0,0,0,0.3,0.232293,15.5372,0,-14.6955,0,0,0.866172,0.205958,0,-0.163636,0,0,0.0677073
1.25,0.5,0.294047,0,0,-0.3,-0.136364,0,0,0,0,0.3,0.232289,15.5367,0,-14.6955,0,0,0.866153,0.205953,0,-0.163636,0,0,0.0677109
1.26,0.5,0.294051,0,0,-0.3,-0.136364,0,0,0,0,0.3,0.232286,15.5362,0,-14.6955,0,0,0.866135,0.205949,0,-0.163636,0,0,0.0677144
1.27,0.5,0.294055,0,0,-0.3,-0.136364,0,0,0,0,0.3,0.232282,15.5358,0,-14.6955,0,0,0.866116,0.205945,0,-0.163636,0,0,0.067718
1.28,0.5,0.294059,0,0,-0.3,-0.136364,0,0,0,0,0.3,0.232278,15.5353,0,-14.6955,0,0,0.866098,0.205941,0,-0.163636,0,0,0.0677216
1.29,0.5,0.294063,0,0,-0.3,-0.136364,0,0,0,0,0.3,0.232275,15.5349,0,-14.6955,0,0,0.86608,0.205937,0,-0.163636,0,0,0.0677251
1.3,0.5,0.294067,0,0,-0.3,-0.136364,0,0,0,0,0.3,0.232271,15.5346,0,-14.6955,0,0,0.866061,0.205933,0,-0.163636,0,0,0.0677287
1.31,0.5,0.29407,0,0,-0.3,-0.136364,0,0,0,0,0.3,0.232268,15.5342,0,-14.6955,0,0,0.866043,0.20593,0,-0.163636,0,0,0.0677322
1.32,0.5,0.294073,0,0,-0.3,-0.136364,0,0,0,0,0.3,0.232264,15.5339,0,-14.6955,0,0,0.866025,0.205927,0,-0.163636,0,0,0.0677358
1.33,0.5,0.294076,0,0,-0.3,-0.136364,0,0,0,0,0.3,0.232261,15.5336,0,-14.6955,0,0,0.866007,0.205924,0,-0.163636,0,0,0.0677393
1.34,0.5,0.294079,0,0,-0.3,-0.136364,0,0,0,0,0.3,0.232257,15.5333,0,-14.6955,0,0,0.865989,0.205921,0,-0.163636,0,0,0.0677428
1.35,0.5,0.294081,0,0,-0.3,-0.136364,0,0,0,0,0.3,0.232254,15.533,0,-14.6955,0,0,0.865971,0.205919,0,-0.163636,0,0,0.0677463
1.36,0.5,0.294084,0,0,-0.3,-0.136364,0,0,0,0,0.3,0.23225,15.5328,0,-14.6955,0,0,0.865953,0.205916,0,-0.163636,0,0,0.0677498
1.37,0.5,0.294086,0,0,-0.3,-0.136364,0,0,0,0,0.3,0.232247,15.5326,0,-14.6955,0,0,0.865935,0.205914,0,-0.163636,0,0,0.0677533
1.38,0.5,0.294088,0,0,-0.3,-0.136364,0,0,0,0,0.3,0.232243,15.5323,0,-14.6955,0,0,0.865917,0.205912,0,-0.163636,0,0,0.0677568
1.39,0.5,0.29409,0,0,-0.3,-0.136364,0,0,0,0,0.3,0.23224,15.5321,0,-14.6955,0,0,0.8659,0.20591,0,-0.163636,0,0,0.0677603
1.4,0.5,0.294092,0,0,-0.3,-0.136364,0,0,0,0,0.3,0.232236,15.5319,0,-14.6955,0,0,0.865882,0.205908,0,-0.163636,0,0,0.0677637
1.41,0.5,0.294093,0,0,-0.3,-0.136364,0,0,0,0,0.3,0.232233,15.5318,0,-14.6955,0,0,0.865864,0.205907,0,-0.163636,0,0,0.0677672
1.42,0.5,0.294095,0,0,-0.3,-0.136364,0,0,0,0,0.3,0.232229,15.5316,0,-14.6955,0,0,0.865846,0.205905,0,-0.163636,0,0,0.0677706
1.43,0.5,0.294096,0,0,-0.3,-0.136364,0,0,0,0,0.3,0.232226,15.5314,0,-14.6955,0,0,0.865829,0.205904,0,-0.163636,0,0,0.0677741
1.44,0.5,0.294098,0,0,-0.3,-0.136364,0,0,0,0,0.3,0.232222,15.5313,0,-14.6955,0,0,0.865811,0.205902,0,-0.163636,0,0,0.0677775
1.45,0.5,0.294099,0,0,-0.3,-0.136364,0,0,0,0,0.3,0.232219,15.5312,0,-14.6955,0,0,0.865794,0.205901,0,-0.163636,0,0,0.0677809
1.46,0.5,0.2941,0,0,-0.3,-0.136364,0,0,0,0,0.3,0.232216,15.531,0,-14.6955,0,0,0.865776,0.2059,0,-0.163636,0,0,0.0677844
1.47,0.5,0.294101,0,0,-0.3,-0.136364,0,0,0,0,0.3,0.232212,15.5309,0,-14.6955,0,0,0.865759,0.205899,0,-0.163636,0,0,0.0677878
1.48,0.5,0.294102,0,0,-0.3,-0.136364,0,0,0,0,0.3,0.232209,15.5308,0,-14.6955,0,0,0.865742,0.205898,0,-0.163636,0,0,0.0677912
1.49,0.5,0.294103,0,0,-0.3,-0.136364,0,0,0,0,0.3,0.232205,15.5307,0,-14.6955,0,0,0.865724,0.205897,0,-0.163636,0,0,0.0677946
1.5,0.5,0.294104,0,0,-0.3,-0.136364,0,0,0,0,0.3,0.232202,15.5306,0,-14.6955,0,0,0.865707,0.205896,0,-0.163636,0,0,0.067798
1.51,0.5,0.294105,0,0,-0.3,-0.136364,0,0,0,0,0.3,0.232199,15.5305,0,-14.6955,0,0,0.86569,0.205895,0,-0.163636,0,0,0.0678013
1.52,0.5,0.294106,0,0,-0.3,-0.136364,0,0,0,0,0.3,0.232195,15.5304,0,-14.6955,0,0,0.865672,0.205894,0,-0.163636,0,0,0.0678047
1.53,0.5,0.294107,0,0,-0.3,-0.136364,0,0,0,0,0.3,0.232192,15.5303,0,-14.6955,0,0,0.865655,0.205893,0,-0.163636,0,0,0.0678081
1.54,0.5,0.294107,0,0,-0.3,-0.136364,0,0,0,0,0.3,0.232189,15.5303,0,-14.6955,0,0,0.865638,0.205893,0,-0.163636,0,0,0.0678114
1.55,0.5,0.294108,0,0,-0.3,-0.136364,0,0,0,0,0.3,0.232185,15.5302,0,-14.6955,0,0,0.865621,0.205892,0,-0.163636,0,0,0.0678148
1.56,0.5,0.294109,0,0,-0.3,-0.136364,0,0,0,0,0.3,0.232182,15.5301,0,-14.6955,0,0,0.865604,0.205891,0,-0.163636,0,0,0.0678181
1.57,0.5,0.294109,0,0,-0.3,-0.136364,0,0,0,0,0.3,0.232179,15.5301,0,-14.6955,0,0,0.865587,0.205891,0,-0.163636,0,0,0.0678215
1.58,0.5,0.29411,0,0,-0.3,-0.136364,0,0,0,0,0.3,0.232175,15.53,0,-14.6955,0,0,0.86557,0.20589,0,-0.163636,0,0,0.0678248
1.59,0.5,0.29411,0,0,-0.3,-0.136364,0,0,0,0,0.3,0.232172,15.53,0,-14.6955,0,0,0.865553,0.20589,0,-0.163636,0,0,0.0678281
1.6,0.5,0.294111,0,0,-0.3,-0.136364,0,0,0,0,0.3,0.232169,15.5299,0,-14.6955,0,0,0.865536,0.205889,0,-0.163636,0,0,0.0678314
1.61,0.5,0.294111,0,0,-0.3,-0.136364,0,0,0,0,0.3,0.232165,15.5299,0,-14.6955,0,0,0.865519,0.205889,0,-0.163636,0,0,0.0678347
1.62,0.5,0.294112,0,0,-0.3,-0.136364,0,0,0,0,0.3,0.232162,15.5298,0,-14.6955,0,0,0.865503,0.205888,0,-0.163636,0,0,0.067838
1.63,0.5,0.294112,0,0,-0.3,-0.136364,0,0,0,0,0.3,0.232159,15.5298,0,-14.6955,0,0,0.865486,0.205888,0,-0.163636,0,0,0.0678413
1.64,0.5,0.294112,0,0,-0.3,-0.136364,0,0,0,0,0.3,0.232155,15.5297,0,-14.6955,0,0,0.865469,0.205888,0,-0.163636,0,0,0.0678446
1.65,0.5,0.294113,0,0,-0.3,-0.136364,0,0,0,0,0.3,0.232152,15.5297,0,-14.6955,0,0,0.865453,0.205887,0,-0.163636,0,0,0.0678479
1.66,0.5,0.294113,0,0,-0.3,-0.136364,0,0,0,0,0.3,0.232149,15.5297,0,-14.6955,0,0,0.865436,0.205887,0,-0.163636,0,0,0.0678511
1.67,0.5,0.294113,0,0,-0.3,-0.136364,0,0,0,0,0.3,0.232146,15.5296,0,-14.6955,0,0,0.865419,0.205887,0,-0.163636,0,0,0.0678544
1.68,0.5,0.294114,0,0,-0.3,-0.136364,0,0,0,0,0.3,0.232142,15.5296,0,-14.6955,0,0,0.865403,0.205886,0,-0.163636,0,0,0.0678576
1.69,0.5,0.294114,0,0,-0.3,-0.136364,0,0,0,0,0.3,0.232139,15.5296,0,-14.6955,0,0,0.865386,0.205886,0,-0.163636,0,0,0.0678609
1.7,0.5,0.294114,0,0,-0.3,-0.136364,0,0,0,0,0.3,0.232136,15.5296,0,-14.6955,0,0,0.86537,0.205886,0,-0.163636,0,0,0.0678641
1.71,0.5,0.294114,0,0,-0.3,-0.136364,0,0,0,0,0.3,0.232133,15.5295,0,-14.6955,0,0,0.865353,0.205886,0,-0.163636,0,0,0.0678673
1.72,0.5,0.294115,0,0,-0.3,-0.136364,0,0,0,0,0.3,0.232129,15.5295,0,-14.6955,0,0,0.865337,0.205885,0,-0.163636,0,0,0.0678705
1.73,0.5,0.294115,0,0,-0.3,-0.136364,0,0,0,0,0.3,0.232126,15.5295,0,-14.6955,0,0,0.865321,0.205885,0,-0.163636,0,0,0.0678738
1.74,0.5,0.294115,0,0,-0.3,-0.136364,0,0,0,0,0.3,0.232123,15.5295,0,-14.6955,0,0,0.865304,0.205885,0,-0.163636,0,0,0.067877
1.75,0.5,0.294115,0,0,-0.3,-0.136364,0,0,0,0,0.3,0.23212,15.5295,0,-14.6955,0,0,0.865288,0.205885,0,-0.163636,0,0,0.0678801
1.76,0.5,0.294115,0,0,-0.3,-0.136364,0,0,0,0,0.3,0.232117,15.5294,0,-14.6955,0,0,0.865272,0.205885,0,-0.163636,0,0,0.0678833
1.77,0.5,0.294115,0,0,-0.3,-0.136364,0,0,0,0,0.3,0.232113,15.5294,0,-14.6955,0,0,0.865255,0.205885,0,-0.163636,0,0,0.0678865
1.78,0.5,0.294116,0,0,-0.3,-0.136364,0,0,0,0,0.3,0.23211,15.5294,0,-14.6955,0,0,0.865239,0.205884,0,-0.163636,0,0,0.0678897
1.79,0.5,0.294116,0,0,-0.3,-0.136364,0,0,0,0,0.3,0.232107,15.5294,0,-14.6955,0,0,0.865223,0.205884,0,-0.163636,0,0,0.0678929
1.8,0.5,0.294116,0,0,-0.3,-0.136364,0,0,0,0,0.3,0.232104,15.5294,0,-14.6955,0,0,0.865207,0.205884,0,-0.163636,0,0,0.067896
1.81,0.5,0.294116,0,0,-0.3,-0.136364,0,0,0,0,0.3,0.232101,15.5294,0,-14.6955,0,0,0.865191,0.205884,0,-0.163636,0,0,0.0678992
1.82,0.5,0.294116,0,0,-0.3,-0.136364,0,0,0,0,0.3,0.232098,15.5294,0,-14.6955,0,0,0.865175,0.205884,0,-0.163636,0,0,0.0679023
1.83,0.5,0.294116,0,0,-0.3,-0.136364,0,0,0,0,0.3,0.232095,15.5293,0,-14.6955,0,0,0.865159,0.205884,0,-0.163636,0,0,0.0679054
1.84,0.5,0.294116,0,0,-0.3,-0.136364,0,0,0,0,0.3,0.232091,15.5293,0,-14.6955,0,0,0.865143,0.205884,0,-0.163636,0,0,0.0679086
1.85,0.5,0.294116,0,0,-0.3,-0.136364,0,0,0,0,0.3,0.232088,15.5293,0,-14.6955,0,0,0.865127,0.205884,0,-0.163636,0,0,0.0679117
1.86,0.5,0.294116,0,0,-0.3,-0.136364,0,0,0,0,0.3,0.232085,15.5293,0,-14.6955,0,0,0.865111,0.205884,0,-0.163636,0,0,0.0679148
1.87,0.5,0.294117,0,0,-0.3,-0.136364,0,0,0,0,0.3,0.232082,15.5293,0,-14.6955,0,0,0.865096,0.205883,0,-0.163636,0,0,0.0679179
1.88,0.5,0.294117,0,0,-0.3,-0.136364,0,0,0,0,0.3,0.232079,15.5293,0,-14.6955,0,0,0.86508,0.205883,0,-0.163636,0,0,0.067921
1.89,0.5,0.294117,0,0,-0.3,-0.136364,0,0,0,0,0.3,0.232076,15.5293,0,-14.6955,0,0,0.865064,0.205883,0,-0.163636,0,0,0.0679241
1.9,0.5,0.294117,0,0,-0.3,-0.136364,0,0,0,0,0.3,0.232073,15.5293,0,-14.6955,0,0,0.865048,0.205883,0,-0.163636,0,0,0.0679272
1.91,0.5,0.294117,0,0,-0.3,-0.136364,0,0,0,0,0.3,0.23207,15.5293,0,-14.6955,0,0,0.865033,0.205883,0,-0.163636,0,0,0.0679303
1.92,0.5,0.294117,0,0,-0.3,-0.136364,0,0,0,0,0.3,0.232067,15.5293,0,-14.6955,0,0,0.865017,0.205883,0,-0.163636,0,0,0.0679333
1.93,0.5,0.294117,0,0,-0.3,-0.136364,0,0,0,0,0.3,0.232064,15.5293,0,-14.6955,0,0,0.865001,0.205883,0,-0.163636,0,0,0.0679364
1.94,0.5,0.294117,0,0,-0.3,-0.136364,0,0,0,0,0.3,0.232061,15.5293,0,-14.6955,0,0,0.864986,0.205883,0,-0.163636,0,0,0.0679394
1.95,0.5,0.294117,0,0,-0.3,-0.136364,0,0,0,0,0.3,0.232058,15.5293,0,-14.6955,0,0,0.86497,0.205883,0,-0.163636,0,0,0.0679425
1.96,0.5,0.294117,0,0,-0.3,-0.136364,0,0,0,0,0.3,0.232054,15.5293,0,-14.6955,0,0,0.864955,0.205883,0,-0.163636,0,0,0.0679455
1.97,0.5,0.294117,0,0,-0.3,-0.136364,0,0,0,0,0.3,0.232051,15.5293,0,-14.6955,0,0,0.864939,0.205883,0,-0.163636,0,0,0.0679486
1.98,0.5,0.294117,0,0,-0.3,-0.136364,0,0,0,0,0.3,0.232048,15.5292,0,-14.6955,0,0,0.864924,0.205883,0,-0.163636,0,0,0.0679516
1.99,0.5,0.294117,0,0,-0.3,-0.136364,0,0,0,0,0.3,0.232045,15.5292,0,-14.6955,0,0,0.864908,0.205883,0,-0.163636,0,0,0.0679546
2,0.5,0.294117,0,0,-0.3,-0.136364,0,0,0,0,0.3,0.232042,15.5292,0,-14.6955,0,0,0.864893,0.205883,0,-0.163636,0,0,0.0679576
2.01,0.5,0.294117,0,0,-0.3,-0.136364,0,0,0,0,0.3,0.232039,15.5292,0,-14.6955,0,0,0.864878,0.205883,0,-0.163636,0,0,0.0679606
2.02,0.5,0.294117,0,0,-0.3,-0.136364,0,0,0,0,0.3,0.232036,15.5292,0,-14.6955,0,0,0.864863,0.205883,0,-0.163636,0,0,0.0679636
2.03,0.5,0.294117,0,0,-0.3,-0.136364,0,0,0,0,0.3,0.232033,15.5292,0,-14.6955,0,0,0.864847,0.205883,0,-0.163636,0,0,0.0679666
2.04,0.5,0.294117,0,0,-0.3,-0.136364,0,0,0,0,0.3,0.23203,15.5292,0,-14.6955,0,0,0.864832,0.205883,0,-0.163636,0,0,0.0679696
2.05,0.5,0.294117,0,0,-0.3,-0.136364,0,0,0,0,0.3,0.232027,15.5292,0,-14.6955,0,0,0.864817,0.205883,0,-0.163636,0,0,0.0679726
2.06,0.5,0.294117,0,0,-0.3,-0.136364,0,0,0,0,0.3,0.232024,15.5292,0,-14.6955,0,0,0.864802,0.205883,0,-0.163636,0,0,0.0679755
2.07,0.5,0.294117,0,0,-0.3,-0.136364,0,0,0,0,0.3,0.232021,15.5292,0,-14.6955,0,0,0.864787,0.205883,0,-0.163636,0,0,0.0679785
2.08,0.5,0.294117,0,0,-0.3,-0.136364,0,0,0,0,0.3,0.232019,15.5292,0,-14.6955,0,0,0.864772,0.205883,0,-0.163636,0,0,0.0679815
2.09,0.5,0.294117,0,0,-0.3,-0.136364,0,0,0,0,0.3,0.232016,15.5292,0,-14.6955,0,0,0.864757,0.205883,0,-0.163636,0,0,0.0679844
2.1,0.5,0.294117,0,0,-0.3,-0.136364,0,0,0,0,0.3,0.232013,15.5292,0,-14.6955,0,0,0.864742,0.205883,0,-0.163636,0,0,0.0679874
2.11,0.5,0.294117,0,0,-0.3,-0.136364,0,0,0,0,0.3,0.23201,15.5292,0,-14.6955,0,0,0.864727,0.205883,0,-0.163636,0,0,0.0679903
2.12,0.5,0.294117,0,0,-0.3,-0.136364,0,0,0,0,0.3,0.232007,15.5292,0,-14.6955,0,0,0.864712,0.205883,0,-0.163636,0,0,0.0679932
2.13,0.5,0.294117,0,0,-0.3,-0.136364,0,0,0,0,0.3,0.232004,15.5292,0,-14.6955,0,0,0.864697,0.205883,0,-0.163636,0,0,0.0679961
2.14,0.5,0.294117,0,0,-0.3,-0.136364,0,0,0,0,0.3,0.232001,15.5292,0,-14.6955,0,0,0.864682,0.205883,0,-0.163636,0,0,0.0679991
2.15,0.5,0.294117,0,0,-0.3,-0.136364,0,0,0,0,0.3,0.231998,15.5292,0,-14.6955,0,0,0.864667,0.205883,0,-0.163636,0,0,0.068002
2.16,0.5,0.294117,0,0,-0.3,-0.136364,0,0,0,0,0.3,0.231995,15.5292,0,-14.6955,0,0,0.864652,0.205883,0,-0.163636,0,0,0.0680049
2.17,0.5,0.294117,0,0,-0.3,-0.136364,0,0,0,0,0.3,0.231992,15.5292,0,-14.6955,0,0,0.864638,0.205883,0,-0.163636,0,0,0.0680078
2.18,0.5,0.294118,0,0,-0.3,-0.136364,0,0,0,0,0.3,0.231989,15.5292,0,-14.6955,0,0,0.864623,0.205882,0,-0.163636,0,0,0.0680106
2.19,0.5,0.294118,0,0,-0.3,-0.136364,0,0,0,0,0.3,0.231986,15.5292,0,-14.6955,0,0,0.864608,0.205882,0,-0.163636,0,0,0.0680135
2.2,0.5,0.294118,0,0,-0.3,-0.136364,0,0,0,0,0.3,0.231984,15.5292,0,-14.6955,0,0,0.864594,0.205882,0,-0.163636,0,0,0.0680164
2.21,0.5,0.294118,0,0,-0.3,-0.136364,0,0,0,0,0.3,0.231981,15.5292,0,-14.6955,0,0,0.864579,0.205882,0,-0.163636,0,0,0.0680193
2.22,0.5,0.294118,0,0,-0.3,-0.136364,0,0,0,0,0.3,0.231978,15.5292,0,-14.6955,0,0,0.864565,0.205882,0,-0.163636,0,0,0.0680221
2.23,0.5,0.294118,0,0,-0.3,-0.136364,0,0,0,0,0.3,0.231975,15.5292,0,-14.6955,0,0,0.86455,0.205882,0,-0.163636,0,0,0.068025
2.24,0.5,0.294118,0,0,-0.3,-0.136364,0,0,0,0,0.3,0.231972,15.5292,0,-14.6955,0,0,0.864536,0.205882,0,-0.163636,0,0,0.0680278
2.25,0.5,0.294118,0,0,-0.3,-0.136364,0,0,0,0,0.3,0.231969,15.5292,0,-14.6955,0,0,0.864521,0.205882,0,-0.163636,0,0,0.0680307
2.26,0.5,0.294118,0,0,-0.3,-0.136364,0,0,0,0,0.3,0.231967,15.5292,0,-14.6955,0,0,0.864507,0.205882,0,-0.163636,0,0,0.0680335
2.27,0.5,0.294118,0,0,-0.3,-0.136364,0,0,0,0,0.3,0.231964,15.5292,0,-14.6955,0,0,0.864492,0.205882,0,-0.163636,0,0,0.0680363
2.28,0.5,0.294118,0,0,-0.3,-0.136364,0,0,0,0,0.3,0.231961,15.5292,0,-14.6955,0,0,0.864478,0.205882,0,-0.163636,0,0,0.0680391
2.29,0.5,0.294118,0,0,-0.3,-0.136364,0,0,0,0,0.3,0.231958,15.5292,0,-14.6955,0,0,0.864464,0.205882,0,-0.163636,0,0,0.068042
2.3,0.5,0.294118,0,0,-0.3,-0.136364,0,0,0,0,0.3,0.231955,15.5292,0,-14.6955,0,0,0.864449,0.205882,0,-0.163636,0,0,0.0680448
2.31,0.5,0.294118,0,0,-0.3,-0.136364,0,0,0,0,0.3,0.231952,15.5292,0,-14.6955,0,0,0.864435,0.205882,0,-0.163636,0,0,0.0680476
2.32,0.5,0.294118,0,0,-0.3,-0.136364,0,0,0,0,0.3,0.23195,15.5292,0,-14.6955,0,0,0.864421,0.205882,0,-0.163636,0,0,0.0680504
2.33,0.5,0.294118,0,0,-0.3,-0.136364,0,0,0,0,0.3,0.231947,15.5292,0,-14.6955,0,0,0.864407,0.205882,0,-0.163636,0,0,0.0680531
2.34,0.5,0.294118,0,0,-0.3,-0.136364,0,0,0,0,0.3,0.231944,15.5292,0,-14.6955,0,0,0.864392,0.205882,0,-0.163636,0,0,0.0680559
2.35,0.5,0.294118,0,0,-0.3,-0.136364,0,0,0,0,0.3,0.231941,15.5292,0,-14.6955,0,0,0.864378,0.205882,0,-0.163636,0,0,0.0680587
2.36,0.5,0.294118,0,0,-0.3,-0.136364,0,0,0,0,0.3,0.231939,15.5292,0,-14.6955,0,0,0.864364,0.205882,0,-0.163636,0,0,0.0680615
2.37,0.5,0.294118,0,0,-0.3,-0.136364,0,0,0,0,0.3,0.231936,15.5292,0,-14.6955,0,0,0.86435,0.205882,0,-0.163636,0,0,0.0680642
2.38,0.5,0.294118,0,0,-0.3,-0.136364,0,0,0,0,0.3,0.231933,15.5292,0,-14.6955,0,0,0.864336,0.205882,0,-0.163636,0,0,0.068067
2.39,0.5,0.294118,0,0,-0.3,-0.136364,0,0,0,0,0.3,0.23193,15.5292,0,-14.6955,0,0,0.864322,0.205882,0,-0.163636,0,0,0.0680697
2.4,0.5,0.294118,0,0,-0.3,-0.136364,0,0,0,0,0.3,0.231928,15.5292,0,-14.6955,0,0,0.864308,0.205882,0,-0.163636,0,0,0.0680725
2.41,0.5,0.294118,0,0,-0.3,-0.136364,0,0,0,0,0.3,0.231925,15.5292,0,-14.6955,0,0,0.864294,0.205882,0,-0.163636,0,0,0.0680752
2.42,0.5,0.294118,0,0,-0.3,-0.136364,0,0,0,0,0.3,0.231922,15.5292,0,-14.6955,0,0,0.86428,0.205882,0,-0.163636,0,0,0.0680779
2.43,0.5,0.294118,0,0,-0.3,-0.136364,0,0,0,0,0.3,0.231919,15.5292,0,-14.6955,0,0,0.864267,0.205882,0,-0.163636,0,0,0.0680806
2.44,0.5,0.294118,0,0,-0.3,-0.136364,0,0,0,0,0.3,0.231917,15.5292,0,-14.6955,0,0,0.864253,0.205882,0,-0.163636,0,0,0.0680834
2.45,0.5,0.294118,0,0,-0.3,-0.136364,0,0,0,0,0.3,0.231914,15.5292,0,-14.6955,0,0,0.864239,0.205882,0,-0.163636,0,0,0.0680861
2.46,0.5,0.294118,0,0,-0.3,-0.136364,0,0,0,0,0.3,0.231911,15.5292,0,-14.6955,0,0,0.864225,0.205882,0,-0.163636,0,0,0.0680888
2.47,0.5,0.294118,0,0,-0.3,-0.136364,0,0,0,0,0.3,0.231909,15.5292,0,-14.6955,0,0,0.864211,0.205882,0,-0.163636,0,0,0.0680915
2.48,0.5,0.294118,0,0,-0.3,-0.136364,0,0,0,0,0.3,0.231906,15.5292,0,-14.6955,0,0,0.864198,0.205882,0,-0.163636,0,0,0.0680942
2.49,0.5,0.294118,0,0,-0.3,-0.136364,0,0,0,0,0.3,0.231903,15.5292,0,-14.6955,0,0,0.864184,0.205882,0,-0.163636,0,0,0.0680968
2.5,0.5,0.294118,0,0,-0.3,-0.136364,0,0,0,0,0.3,0.2319,15.5292,0,-14.6955,0,0,0.86417,0.205882,0,-0.163636,0,0,0.0680995
2.51,0.5,0.294118,0,0,-0.3,-0.136364,0,0,0,0,0.3,0.231898,15.5292,0,-14.6955,0,0,0.864157,0.205882,0,-0.163636,0,0,0.0681022
2.52,0.5,0.294118,0,0,-0.3,-0.136364,0,0,0,0,0.3,0.231895,15.5292,0,-14.6955,0,0,0.864143,0.205882,0,-0.163636,0,0,0.0681048
2.53,0.5,0.294118,0,0,-0.3,-0.136364,0,0,0,0,0.3,0.231892,15.5292,0,-14.6955,0,0,0.86413,0.205882,0,-0.163636,0,0,0.0681075
2.54,0.5,0.294118,0,0,-0.3,-0.136364,0,0,0,0,0.3,0.23189,15.5292,0,-14.6955,0,0,0.864116,0.205882,0,-0.163636,0,0,0.0681102
2.55,0.5,0.294118,0,0,-0.3,-0.136364,0,0,0,0,0.3,0.231887,15.5292,0,-14.6955,0,0,0.864103,0.205882,0,-0.163636,0,0,0.0681128
2.56,0.5,0.294118,0,0,-0.3,-0.136364,0,0,0,0,0.3,0.231885,15.5292,0,-14.6955,0,0,0.864089,0.205882,0,-0.163636,0,0,0.0681154
2.57,0.5,0.294118,0,0,-0.3,-0.136364,0,0,0,0,0.3,0.231882,15.5292,0,-14.6955,0,0,0.864076,0.205882,0,-0.163636,0,0,0.0681181
2.58,0.5,0.294118,0,0,-0.3,-0.136364,0,0,0,0,0.3,0.231879,15.5292,0,-14.6955,0,0,0.864063,0.205882,0,-0.163636,0,0,0.0681207
2.59,0.5,0.294118,0,0,-0.3,-0.136364,0,0,0,0,0.3,0.231877,15.5292,0,-14.6955,0,0,0.864049,0.205882,0,-0.163636,0,0,0.0681233
2.6,0.5,0.294118,0,0,-0.3,-0.136364,0,0,0,0,0.3,0.231874,15.5292,0,-14.6955,0,0,0.864036,0.205882,0,-0.163636,0,0,0.0681259
2.61,0.5,0.294118,0,0,-0.3,-0.136364,0,0,0,0,0.3,0.231871,15.5292,0,-14.6955,0,0,0.864023,0.205882,0,-0.163636,0,0,0.0681285
2.62,0.5,0.294118,0,0,-0.3,-0.136364,0,0,0,0,0.3,0.231869,15.5292,0,-14.6955,0,0,0.864009,0.205882,0,-0.163636,0,0,0.0681311
2.63,0.5,0.294118,0,0,-0.3,-0.136364,0,0,0,0,0.3,0.231866,15.5292,0,-14.6955,0,0,0.863996,0.205882,0,-0.163636,0,0,0.0681337
2.64,0.5,0.294118,0,0,-0.3,-0.136364,0,0,0,0,0.3,0.231864,15.5292,0,-14.6955,0,0,0.863983,0.205882,0,-0.163636,0,0,0.0681363
2.65,0.5,0.294118,0,0,-0.3,-0.136364,0,0,0,0,0.3,0.231861,15.5292,0,-14.6955,0,0,0.86397,0.205882,0,-0.163636,0,0,0.0681389
2.66,0.5,0.294118,0,0,-0.3,-0.136364,0,0,0,0,0.3,0.231859,15.5292,0,-14.6955,0,0,0.863957,0.205882,0,-0.163636,0,0,0.0681415
2.67,0.5,0.294118,0,0,-0.3,-0.136364,0,0,0,0,0.3,0.231856,15.5292,0,-14.6955,0,0,0.863944,0.205882,0,-0.163636,0,0,0.0681441
2.68,0.5,0.294118,0,0,-0.3,-0.136364,0,0,0,0,0.3,0.231853,15.5292,0,-14.6955,0,0,0.863931,0.205882,0,-0.163636,0,0,0.0681466
2.69,0.5,0.294118,0,0,-0.3,-0.136364,0,0,0,0,0.3,0.231851,15.5292,0,-14.6955,0,0,0.863917,0.205882,0,-0.163636,0,0,0.0681492
2.7,0.5,0.294118,0,0,-0.3,-0.136364,0,0,0,0,0.3,0.231848,15.5292,0,-14.6955,0,0,0.863904,0.205882,0,-0.163636,0,0,0.0681517
2.71,0.5,0.294118,0,0,-0.3,-0.136364,0,0,0,0,0.3,0.231846,15.5292,0,-14.6955,0,0,0.863892,0.205882,0,-0.163636,0,0,0.0681543
2.72,0.5,0.294118,0,0,-0.3,-0.136364,0,0,0,0,0.3,0.231843,15.5292,0,-14.6955,0,0,0.863879,0.205882,0,-0.163636,0,0,0.0681568
2.73,0.5,0.294118,0,0,-0.3,-0.136364,0,0,0,0,0.3,0.231841,15.5292,0,-14.6955,0,0,0.863866,0.205882,0,-0.163636,0,0,0.0681594
2.74,0.5,0.294118,0,0,-0.3,-0.136364,0,0,0,0,0.3,0.231838,15.5292,0,-14.6955,0,0,0.863853,0.205882,0,-0.163636,0,0,0.0681619
2.75,0.5,0.294118,0,0,-0.3,-0.136364,0,0,0,0,0.3,0.231836,15.5292,0,-14.6955,0,0,0.86384,0.205882,0,-0.163636,0,0,0.0681644
2.76,0.5,0.294118,0,0,-0.3,-0.136364,0,0,0,0,0.3,0.231833,15.5292,0,-14.6955,0,0,0.863827,0.205882,0,-0.163636,0,0,0.0681669
2.77,0.5,0.294118,0,0,-0.3,-0.136364,0,0,0,0,0.3,0.231831,15.5292,0,-14.6955,0,0,0.863814,0.205882,0,-0.163636,0,0,0.0681694
2.78,0.5,0.294118,0,0,-0.3,-0.136364,0,0,0,0,0.3,0.231828,15.5292,0,-14.6955,0,0,0.863802,0.205882,0,-0.163636,0,0,0.0681719
2.79,0.5,0.294118,0,0,-0.3,-0.136364,0,0,0,0,0.3,0.231826,15.5292,0,-14.6955,0,0,0.863789,0.205882,0,-0.163636,0,0,0.0681744
2.8,0.5,0.294118,0,0,-0.3,-0.136364,0,0,0,0,0.3,0.231823,15.5292,0,-14.6955,0,0,0.863776,0.205882,0,-0.163636,0,0,0.0681769
2.81,0.5,0.294118,0,0,-0.3,-0.136364,0,0,0,0,0.3,0.231821,15.5292,0,-14.6955,0,0,0.863764,0.205882,0,-0.163636,0,0,0.0681794
2.82,0.5,0.294118,0,0,-0.3,-0.136364,0,0,0,0,0.3,0.231818,15.5292,0,-14.6955,0,0,0.863751,0.205882,0,-0.163636,0,0,0.0681819
2.83,0.5,0.294118,0,0,-0.3,-0.136364,0,0,0,0,0.3,0.231816,15.5292,0,-14.6955,0,0,0.863738,0.205882,0,-0.163636,0,0,0.0681844
2.84,0.5,0.294118,0,0,-0.3,-0.136364,0,0,0,0,0.3,0.231813,15.5292,0,-14.6955,0,0,0.863726,0.205882,0,-0.163636,0,0,0.0681869
2.85,0.5,0.294118,0,0,-0.3,-0.136364,0,0,0,0,0.3,0.231811,15.5292,0,-14.6955,0,0,0.863713,0.205882,0,-0.163636,0,0,0.0681893
2.86,0.5,0.294118,0,0,-0.3,-0.136364,0,0,0,0,0.3,0.231808,15.5292,0,-14.6955,0,0,0.863701,0.205882,0,-0.163636,0,0,0.0681918
2.87,0.5,0.294118,0,0,-0.3,-0.136364,0,0,0,0,0.3,0.231806,15.5292,0,-14.6955,0,0,0.863688,0.205882,0,-0.163636,0,0,0.0681942
2.88,0.5,0.294118,0,0,-0.3,-0.136364,0,0,0,0,0.3,0.231803,15.5292,0,-14.6955,0,0,0.863676,0.205882,0,-0.163636,0,0,0.0681967
2.89,0.5,0.294118,0,0,-0.3,-0.136364,0,0,0,0,0.3,0.231801,15.5292,0,-14.6955,0,0,0.863663,0.205882,0,-0.163636,0,0,0.0681991
2.9,0.5,0.294118,0,0,-0.3,-0.136364,0,0,0,0,0.3,0.231798,15.5292,0,-14.6955,0,0,0.863651,0.205882,0,-0.163636,0,0,0.0682016
2.91,0.5,0.294118,0,0,-0.3,-0.136364,0,0,0,0,0.3,0.231796,15.5292,0,-14.6955,0,0,0.863638,0.205882,0,-0.163636,0,0,0.068204
2.92,0.5,0.294118,0,0,-0.3,-0.136364,0,0,0,0,0.3,0.231794,15.5292,0,-14.6955,0,0,0.863626,0.205882,0,-0.163636,0,0,0.0682064
2.93,0.5,0.294118,0,0,-0.3,-0.136364,0,0,0,0,0.3,0.231791,15.5292,0,-14.6955,0,0,0.863614,0.205882,0,-0.163636,0,0,0.0682088
2.94,0.5,0.294118,0,0,-0.3,-0.136364,0,0,0,0,0.3,0.231789,15.5292,0,-14.6955,0,0,0.863602,0.205882,0,-0.163636,0,0,0.0682112
2.95,0.5,0.294118,0,0,-0.3,-0.136364,0,0,0,0,0.3,0.231786,15.5292,0,-14.6955,0,0,0.863589,0.205882,0,-0.163636,0,0,0.0682136
2.96,0.5,0.294118,0,0,-0.3,-0.136364,0,0,0,0,0.3,0.231784,15.5292,0,-14.6955,0,0,0.863577,0.205882,0,-0.163636,0,0,0.068216
2.97,0.5,0.294118,0,0,-0.3,-0.136364,0,0,0,0,0.3,0.231782,15.5292,0,-14.6955,0,0,0.863565,0.205882,0,-0.163636,0,0,0.0682184
2.98,0.5,0.294118,0,0,-0.3,-0.136364,0,0,0,0,0.3,0.231779,15.5292,0,-14.6955,0,0,0.863553,0.205882,0,-0.163636,0,0,0.0682208
2.99,0.5,0.294118,0,0,-0.3,-0.136364,0,0,0,0,0.3,0.231777,15.5292,0,-14.6955,0,0,0.863541,0.205882,0,-0.163636,0,0,0.0682232
3,0.5,0.294118,0,0,-0.3,-0.136364,0,0,0,0,0.3,0.231774,15.5292,0,-14.6955,0,0,0.863528,0.205882,0,-0.163636,0,0,0.0682256
3.01,0.5,0.294118,0,0,-0.3,-0.136364,0,0,0,0,0.3,0.231772,15.5292,0,-14.6955,0,0,0.863516,0.205882,0,-0.163636,0,0,0.068228
3.02,0.5,0.294118,0,0,-0.3,-0.136364,0,0,0,0,0.3,0.23177,15.5292,0,-14.6955,0,0,0.863504,0.205882,0,-0.163636,0,0,0.0682303
3.03,0.5,0.294118,0,0,-0.3,-0.136364,0,0,0,0,0.3,0.231767,15.5292,0,-14.6955,0,0,0.863492,0.205882,0,-0.163636,0,0,0.0682327
3.04,0.5,0.294118,0,0,-0.3,-0.136364,0,0,0,0,0.3,0.231765,15.5292,0,-14.6955,0,0,0.86348,0.205882,0,-0.163636,0,0,0.0682351
3.05,0.5,0.294118,0,0,-0.3,-0.136364,0,0,0,0,0.3,0.231763,15.5292,0,-14.6955,0,0,0.863468,0.205882,0,-0.163636,0,0,0.0682374
3.06,0.5,0.294118,0,0,-0.3,-0.136364,0,0,0,0,0.3,0.23176,15.5292,0,-14.6955,0,0,0.863456,0.205882,0,-0.163636,0,0,0.0682397
3.07,0.5,0.294118,0,0,-0.3,-0.136364,0,0,0,0,0.3,0.231758,15.5292,0,-14.6955,0,0,0.863445,0.205882,0,-0.163636,0,0,0.0682421
3.08,0.5,0.294118,0,0,-0.3,-0.136364,0,0,0,0,0.3,0.231756,15.5292,0,-14.6955,0,0,0.863433,0.205882,0,-0.163636,0,0,0.0682444
3.09,0.5,0.294118,0,0,-0.3,-0.136364,0,0,0,0,0.3,0.231753,15.5292,0,-14.6955,0,0,0.863421,0.205882,0,-0.163636,0,0,0.0682467
3.1,0.5,0.294118,0,0,-0.3,-0.136364,0,0,0,0,0.3,0.231751,15.5292,0,-14.6955,0,0,0.863409,0.205882,0,-0.163636,0,0,0.0682491
3.11,0.5,0.294118,0,0,-0.3,-0.136364,0,0,0,0,0.3,0.231749,15.5292,0,-14.6955,0,0,0.863397,0.205882,0,-0.163636,0,0,0.0682514
3.12,0.5,0.294118,0,0,-0.3,-0.136364,0,0,0,0,0.3,0.231746,15.5292,0,-14.6955,0,0,0.863385,0.205882,0,-0.163636,0,0,0.0682537
3.13,0.5,0.294118,0,0,-0.3,-0.136364,0,0,0,0,0.3,0.231744,15.5292,0,-14.6955,0,0,0.863374,0.205882,0,-0.163636,0,0,0.068256
3.14,0.5,0.294118,0,0,-0.3,-0.136364,0,0,0,0,0.3,0.231742,15.5292,0,-14.6955,0,0,0.863362,0.205882,0,-0.163636,0,0,0.0682583
3.15,0.5,0.294118,0,0,-0.3,-0.136364,0,0,0,0,0.3,0.231739,15.5292,0,-14.6955,0,0,0.86335,0.205882,0,-0.163636,0,0,0.0682606
3.16,0.5,0.294118,0,0,-0.3,-0.136364,0,0,0,0,0.3,0.231737,15.5292,0,-14.6955,0,0,0.863339,0.205882,0,-0.163636,0,0,0.0682629
3.17,0.5,0.294118,0,0,-0.3,-0.136364,0,0,0,0,0.3,0.231735,15.5292,0,-14.6955,0,0,0.863327,0.205882,0,-0.163636,0,0,0.0682652
3.18,0.5,0.294118,0,0,-0.3,-0.136364,0,0,0,0,0.3,0.231733,15.5292,0,-14.6955,0,0,0.863315,0.205882,0,-0.163636,0,0,0.0682675
3.19,0.5,0.294118,0,0,-0.3,-0.136364,0,0,0,0,0.3,0.23173,15.5292,0,-14.6955,0,0,0.863304,0.205882,0,-0.163636,0,0,0.0682697
3.2,0.5,0.294118,0,0,-0.3,-0.136364,0,0,0,0,0.3,0.231728,15.5292,0,-14.6955,0,0,0.863292,0.205882,0,-0.163636,0,0,0.068272
3.21,0.5,0.294118,0,0,-0.3,-0.136364,0,0,0,0,0.3,0.231726,15.5292,0,-14.6955,0,0,0.863281,0.205882,0,-0.163636,0,0,0.0682743
3.22,0.5,0.294118,0,0,-0.3,-0.136364,0,0,0,0,0.3,0.231723,15.5292,0,-14.6955,0,0,0.863269,0.205882,0,-0.163636,0,0,0.0682765
3.23,0.5,0.294118,0,0,-0.3,-0.136364,0,0,0,0,0.3,0.231721,15.5292,0,-14.6955,0,0,0.863258,0.205882,0,-0.163636,0,0,0.0682788
3.24,0.5,0.294118,0,0,-0.3,-0.136364,0,0,0,0,0.3,0.231719,15.5292,0,-14.6955,0,0,0.863246,0.205882,0,-0.163636,0,0,0.068281
3.25,0.5,0.294118,0,0,-0.3,-0.136364,0,0,0,0,0.3,0.231717,15.5292,0,-14.6955,0,0,0.863235,0.205882,0,-0.163636,0,0,0.0682833
3.26,0.5,0.294118,0,0,-0.3,-0.136364,0,0,0,0,0.3,0.231714,15.5292,0,-14.6955,0,0,0.863224,0.205882,0,-0.163636,0,0,0.0682855
3.27,0.5,0.294118,0,0,-0.3,-0.136364,0,0,0,0,0.3,0.231712,15.5292,0,-14.6955,0,0,0.863212,0.205882,0,-0.163636,0,0,0.0682877
3.28,0.5,0.294118,0,0,-0.3,-0.136364,0,0,0,0,0.3,0.23171,15.5292,0,-14.6955,0,0,0.863201,0.205882,0,-0.163636,0,0,0.06829
3.29,0.5,0.294118,0,0,-0.3,-0.136364,0,0,0,0,0.3,0.231708,15.5292,0,-14.6955,0,0,0.86319,0.205882,0,-0.163636,0,0,0.0682922
3.3,0.5,0.294118,0,0,-0.3,-0.136364,0,0,0,0,0.3,0.231706,15.5292,0,-14.6955,0,0,0.863178,0.205882,0,-0.163636,0,0,0.0682944
3.31,0.5,0.294118,0,0,-0.3,-0.136364,0,0,0,0,0.3,0.231703,15.5292,0,-14.6955,0,0,0.863167,0.205882,0,-0.163636,0,0,0.0682966
3.32,0.5,0.294118,0,0,-0.3,-0.136364,0,0,0,0,0.3,0.231701,15.5292,0,-14.6955,0,0,0.863156,0.205882,0,-0.163636,0,0,0.0682988
3.33,0.5,0.294118,0,0,-0.3,-0.136364,0,0,0,0,0.3,0.231699,15.5292,0,-14.6955,0,0,0.863145,0.205882,0,-0.163636,0,0,0.068301
3.34,0.5,0.294118,0,0,-0.3,-0.136364,0,0,0,0,0.3,0.231697,15.5292,0,-14.6955,0,0,0.863133,0.205882,0,-0.163636,0,0,0.0683032
3.35,0.5,0.294118,0,0,-0.3,-0.136364,0,0,0,0,0.3,0.231695,15.5292,0,-14.6955,0,0,0.863122,0.205882,0,-0.163636,0,0,0.0683054
3.36,0.5,0.294118,0,0,-0.3,-0.136364,0,0,0,0,0.3,0.231692,15.5292,0,-14.6955,0,0,0.863111,0.205882,0,-0.163636,0,0,0.0683076
3.37,0.5,0.294118,0,0,-0.3,-0.136364,0,0,0,0,0.3,0.23169,15.5292,0,-14.6955,0,0,0.8631,0.205882,0,-0.163636,0,0,0.0683098
3.38,0.5,0.294118,0,0,-0.3,-0.136364,0,0,0,0,0.3,0.231688,15.5292,0,-14.6955,0,0,0.863089,0.205882,0,-0.163636,0,0,0.0683119
3.39,0.5,0.294118,0,0,-0.3,-0.136364,0,0,0,0,0.3,0.231686,15.5292,0,-14.6955,0,0,0.863078,0.205882,0,-0.163636,0,0,0.0683141
3.4,0.5,0.294118,0,0,-0.3,-0.136364,0,0,0,0,0.3,0.231684,15.5292,0,-14.6955,0,0,0.863067,0.205882,0,-0.163636,0,0,0.0683163
3.41,0.5,0.294118,0,0,-0.3,-0.136364,0,0,0,0,0.3,0.231682,15.5292,0,-14.6955,0,0,0.863056,0.205882,0,-0.163636,0,0,0.0683184
3.42,0.5,0.294118,0,0,-0.3,-0.136364,0,0,0,0,0.3,0.231679,15.5292,0,-14.6955,0,0,0.863045,0.205882,0,-0.163636,0,0,0.0683206
3.43,0.5,0.294118,0,0,-0.3,-0.136364,0,0,0,0,0.3,0.231677,15.5292,0,-14.6955,0,0,0.863034,0.205882,0,-0.163636,0,0,0.0683227
3.44,0.5,0.294118,0,0,-0.3,-0.136364,0,0,0,0,0.3,0.231675,15.5292,0,-14.6955,0,0,0.863023,0.205882,0,-0.163636,0,0,0.0683249
3.45,0.5,0.294118,0,0,-0.3,-0.136364,0,0,0,0,0.3,0.231673,15.5292,0,-14.6955,0,0,0.863012,0.205882,0,-0.163636,0,0,0.068327
3.46,0.5,0.294118,0,0,-0.3,-0.136364,0,0,0,0,0.3,0.231671,15.5292,0,-14.6955,0,0,0.863001,0.205882,0,-0.163636,0,0,0.0683291
3.47,0.5,0.294118,0,0,-0.3,-0.136364,0,0,0,0,0.3,0.231669,15.5292,0,-14.6955,0,0,0.862991,0.205882,0,-0.163636,0,0,0.0683313
3.48,0.5,0.294118,0,0,-0.3,-0.136364,0,0,0,0,0.3,0.231667,15.5292,0,-14.6955,0,0,0.86298,0.205882,0,-0.163636,0,0,0.0683334
3.49,0.5,0.294118,0,0,-0.3,-0.136364,0,0,0,0,0.3,0.231664,15.5292,0,-14.6955,0,0,0.862969,0.205882,0,-0.163636,0,0,0.0683355
3.5,0.5,0.294118,0,0,-0.3,-0.136364,0,0,0,0,0.3,0.231662,15.5292,0,-14.6955,0,0,0.862958,0.205882,0,-0.163636,0,0,0.0683376
3.51,0.5,0.294118,0,0,-0.3,-0.136364,0,0,0,0,0.3,0.23166,15.5292,0,-14.6955,0,0,0.862948,0.205882,0,-0.163636,0,0,0.0683397
3.52,0.5,0.294118,0,0,-0.3,-0.136364,0,0,0,0,0.3,0.231658,15.5292,0,-14.6955,0,0,0.862937,0.205882,0,-0.163636,0,0,0.0683418
3.53,0.5,0.294118,0,0,-0.3,-0.136364,0,0,0,0,0.3,0.231656,15.5292,0,-14.6955,0,0,0.862926,0.205882,0,-0.163636,0,0,0.0683439
3.54,0.5,0.294118,0,0,-0.3,-0.136364,0,0,0,0,0.3,0.231654,15.5292,0,-14.6955,0,0,0.862915,0.205882,0,-0.163636,0,0,0.068346
3.55,0.5,0.294118,0,0,-0.3,-0.136364,0,0,0,0,0.3,0.231652,15.5292,0,-14.6955,0,0,0.862905,0.205882,0,-0.163636,0,0,0.0683481
3.56,0.5,0.294118,0,0,-0.3,-0.136364,0,0,0,0,0.3,0.23165,15.5292,0,-14.6955,0,0,0.862894,0.205882,0,-0.163636,0,0,0.0683502
3.57,0.5,0.294118,0,0,-0.3,-0.136364,0,0,0,0,0.3,0.231648,15.5292,0,-14.6955,0,0,0.862884,0.205882,0,-0.163636,0,0,0.0683523
3.58,0.5,0.294118,0,0,-0.3,-0.136364,0,0,0,0,0.3,0.231646,15.5292,0,-14.6955,0,0,0.862873,0.205882,0,-0.163636,0,0,0.0683544
3.59,0.5,0.294118,0,0,-0.3,-0.136364,0,0,0,0,0.3,0.231644,15.5292,0,-14.6955,0,0,0.862863,0.205882,0,-0.163636,0,0,0.0683564
3.6,0.5,0.294118,0,0,-0.3,-0.136364,0,0,0,0,0.3,0.231642,15.5292,0,-14.6955,0,0,0.862852,0.205882,0,-0.163636,0,0,0.0683585
3.61,0.5,0.294118,0,0,-0.3,-0.136364,0,0,0,0,0.3,0.231639,15.5292,0,-14.6955,0,0,0.862842,0.205882,0,-0.163636,0,0,0.0683606
3.62,0.5,0.294118,0,0,-0.3,-0.136364,0,0,0,0,0.3,0.231637,15.5292,0,-14.6955,0,0,0.862831,0.205882,0,-0.163636,0,0,0.0683626
3.63,0.5,0.294118,0,0,-0.3,-0.136364,0,0,0,0,0.3,0.231635,15.5292,0,-14.6955,0,0,0.862821,0.205882,0,-0.163636,0,0,0.0683647
3.64,0.5,0.294118,0,0,-0.3,-0.136364,0,0,0,0,0.3,0.231633,15.5292,0,-14.6955,0,0,0.86281,0.205882,0,-0.163636,0,0,0.0683667
3.65,0.5,0.294118,0,0,-0.3,-0.136364,0,0,0,0,0.3,0.231631,15.5292,0,-14.6955,0,0,0.8628,0.205882,0,-0.163636,0,0,0.0683687
3.66,0.5,0.294118,0,0,-0.3,-0.136364,0,0,0,0,0.3,0.231629,15.5292,0,-14.6955,0,0,0.86279,0.205882,0,-0.163636,0,0,0.0683708
3.67,0.5,0.294118,0,0,-0.3,-0.136364,0,0,0,0,0.3,0.231627,15.5292,0,-14.6955,0,0,0.862779,0.205882,0,-0.163636,0,0,0.0683728
3.68,0.5,0.294118,0,0,-0.3,-0.136364,0,0,0,0,0.3,0.231625,15.5292,0,-14.6955,0,0,0.862769,0.205882,0,-0.163636,0,0,0.0683748
3.69,0.5,0.294118,0,0,-0.3,-0.136364,0,0,0,0,0.3,0.231623,15.5292,0,-14.6955,0,0,0.862759,0.205882,0,-0.163636,0,0,0.0683769
3.7,0.5,0.294118,0,0,-0.3,-0.136364,0,0,0,0,0.3,0.231621,15.5292,0,-14.6955,0,0,0.862748,0.205882,0,-0.163636,0,0,0.0683789
3.71,0.5,0.294118,0,0,-0.3,-0.136364,0,0,0,0,0.3,0.231619,15.5292,0,-14.6955,0,0,0.862738,0.205882,0,-0.163636,0,0,0.0683809
3.72,0.5,0.294118,0,0,-0.3,-0.136364,0,0,0,0,0.3,0.231617,15.5292,0,-14.6955,0,0,0.862728,0.205882,0,-0.163636,0,0,0.0683829
3.73,0.5,0.294118,0,0,-0.3,-0.136364,0,0,0,0,0.3,0.231615,15.5292,0,-14.6955,0,0,0.862718,0.205882,0,-0.163636,0,0,0.0683849
3.74,0.5,0.294118,0,0,-0.3,-0.136364,0,0,0,0,0.3,0.231613,15.5292,0,-14.6955,0,0,0.862708,0.205882,0,-0.163636,0,0,0.0683869
3.75,0.5,0.294118,0,0,-0.3,-0.136364,0,0,0,0,0.3,0.231611,15.5292,0,-14.6955,0,0,0.862698,0.205882,0,-0.163636,0,0,0.0683889
3.76,0.5,0.294118,0,0,-0.3,-0.136364,0,0,0,0,0.3,0.231609,15.5292,0,-14.6955,0,0,0.862687,0.205882,0,-0.163636,0,0,0.0683909
3.77,0.5,0.294118,0,0,-0.3,-0.136364,0,0,0,0,0.3,0.231607,15.5292,0,-14.6955,0,0,0.862677,0.205882,0,-0.163636,0,0,0.0683929
3.78,0.5,0.294118,0,0,-0.3,-0.136364,0,0,0,0,0.3,0.231605,15.5292,0,-14.6955,0,0,0.862667,0.205882,0,-0.163636,0,0,0.0683948
3.79,0.5,0.294118,0,0,-0.3,-0.136364,0,0,0,0,0.3,0.231603,15.5292,0,-14.6955,0,0,0.862657,0.205882,0,-0.163636,0,0,0.0683968
3.8,0.5,0.294118,0,0,-0.3,-0.136364,0,0,0,0,0.3,0.231601,15.5292,0,-14.6955,0,0,0.862647,0.205882,0,-0.163636,0,0,0.0683988
3.81,0.5,0.294118,0,0,-0.3,-0.136364,0,0,0,0,0.3,0.231599,15.5292,0,-14.6955,0,0,0.862637,0.205882,0,-0.163636,0,0,0.0684007
3.82,0.5,0.294118,0,0,-0.3,-0.136364,0,0,0,0,0.3,0.231597,15.5292,0,-14.6955,0,0,0.862627,0.205882,0,-0.163636,0,0,0.0684027
3.83,0.5,0.294118,0,0,-0.3,-0.136364,0,0,0,0,0.3,0.231595,15.5292,0,-14.6955,0,0,0.862617,0.205882,0,-0.163636,0,0,0.0684047
3.84,0.5,0.294118,0,0,-0.3,-0.136364,0,0,0,0,0.3,0.231593,15.5292,0,-14.6955,0,0,0.862607,0.205882,0,-0.163636,0,0,0.0684066
3.85,0.5,0.294118,0,0,-0.3,-0.136364,0,0,0,0,0.3,0.231591,15.5292,0,-14.6955,0,0,0.862597,0.205882,0,-0.163636,0,0,0.0684085
3.86,0.5,0.294118,0,0,-0.3,-0.136364,0,0,0,0,0.3,0.23159,15.5292,0,-14.6955,0,0,0.862588,0.205882,0,-0.163636,0,0,0.0684105
3.87,0.5,0.294118,0,0,-0.3,-0.136364,0,0,0,0,0.3,0.231588,15.5292,0,-14.6955,0,0,0.862578,0.205882,0,-0.163636,0,0,0.0684124
3.88,0.5,0.294118,0,0,-0.3,-0.136364,0,0,0,0,0.3,0.231586,15.5292,0,-14.6955,0,0,0.862568,0.205882,0,-0.163636,0,0,0.0684144
3.89,0.5,0.294118,0,0,-0.3,-0.136364,0,0,0,0,0.3,0.231584,15.5292,0,-14.6955,0,0,0.862558,0.205882,0,-0.163636,0,0,0.0684163
3.9,0.5,0.294118,0,0,-0.3,-0.136364,0,0,0,0,0.3,0.231582,15.5292,0,-14.6955,0,0,0.862548,0.205882,0,-0.163636,0,0,0.0684182
3.91,0.5,0.294118,0,0,-0.3,-0.136364,0,0,0,0,0.3,0.23158,15.5292,0,-14.6955,0,0,0.862539,0.205882,0,-0.163636,0,0,0.0684201
3.92,0.5,0.294118,0,0,-0.3,-0.136364,0,0,0,0,0.3,0.231578,15.5292,0,-14.6955,0,0,0.862529,0.205882,0,-0.163636,0,0,0.068422
3.93,0.5,0.294118,0,0,-0.3,-0.136364,0,0,0,0,0.3,0.231576,15.5292,0,-14.6955,0,0,0.862519,0.205882,0,-0.163636,0,0,0.0684239
3.94,0.5,0.294118,0,0,-0.3,-0.136364,0,0,0,0,0.3,0.231574,15.5292,0,-14.6955,0,0,0.862509,0.205882,0,-0.163636,0,0,0.0684259
3.95,0.5,0.294118,0,0,-0.3,-0.136364,0,0,0,0,0.3,0.231572,15.5292,0,-14.6955,0,0,0.8625,0.205882,0,-0.163636,0,0,0.0684278
3.96,0.5,0.294118,0,0,-0.3,-0.136364,0,0,0,0,0.3,0.23157,15.5292,0,-14.6955,0,0,0.86249,0.205882,0,-0.163636,0,0,0.0684297
3.97,0.5,0.294118,0,0,-0.3,-0.136364,0,0,0,0,0.3,0.231568,15.5292,0,-14.6955,0,0,0.86248,0.205882,0,-0.163636,0,0,0.0684315
3.98,0.5,0.294118,0,0,-0.3,-0.136364,0,0,0,0,0.3,0.231567,15.5292,0,-14.6955,0,0,0.862471,0.205882,0,-0.163636,0,0,0.0684334
3.99,0.5,0.294118,0,0,-0.3,-0.136364,0,0,0,0,0.3,0.231565,15.5292,0,-14.6955,0,0,0.862461,0.205882,0,-0.163636,0,0,0.0684353
4,0.5,0.294118,0,0,-0.3,-0.136364,0,0,0,0,0.3,0.231563,15.5292,0,-14.6955,0,0,0.862452,0.205882,0,-0.163636,0,0,0.0684372
4.01,0.5,0.294118,0,0,-0.3,-0.136364,0,0,0,0,0.3,0.231561,15.5292,0,-14.6955,0,0,0.862442,0.205882,0,-0.163636,0,0,0.0684391
4.02,0.5,0.294118,0,0,-0.3,-0.136364,0,0,0,0,0.3,0.231559,15.5292,0,-14.6955,0,0,0.862433,0.205882,0,-0.163636,0,0,0.0684409
4.03,0.5,0.294118,0,0,-0.3,-0.136364,0,0,0,0,0.3,0.231557,15.5292,0,-14.6955,0,0,0.862423,0.205882,0,-0.163636,0,0,0.0684428
4.04,0.5,0.294118,0,0,-0.3,-0.136364,0,0,0,0,0.3,0.231555,15.5292,0,-14.6955,0,0,0.862414,0.205882,0,-0.163636,0,0,0.0684447
4.05,0.5,0.294118,0,0,-0.3,-0.136364,0,0,0,0,0.3,0.231553,15.5292,0,-14.6955,0,0,0.862404,0.205882,0,-0.163636,0,0,0.0684465
4.06,0.5,0.294118,0,0,-0.3,-0.136364,0,0,0,0,0.3,0.231552,15.5292,0,-14.6955,0,0,0.862395,0.205882,0,-0.163636,0,0,0.0684484
4.07,0.5,0.294118,0,0,-0.3,-0.136364,0,0,0,0,0.3,0.23155,15.5292,0,-14.6955,0,0,0.862386,0.205882,0,-0.163636,0,0,0.0684502
4.08,0.5,0.294118,0,0,-0.3,-0.136364,0,0,0,0,0.3,0.231548,15.5292,0,-14.6955,0,0,0.862376,0.205882,0,-0.163636,0,0,0.0684521
4.09,0.5,0.294118,0,0,-0.3,-0.136364,0,0,0,0,0.3,0.231546,15.5292,0,-14.6955,0,0,0.862367,0.205882,0,-0.163636,0,0,0.0684539
4.1,0.5,0.294118,0,0,-0.3,-0.136364,0,0,0,0,0.3,0.231544,15.5292,0,-14.6955,0,0,0.862357,0.205882,0,-0.163636,0,0,0.0684557
4.11,0.5,0.294118,0,0,-0.3,-0.136364,0,0,0,0,0.3,0.231542,15.5292,0,-14.6955,0,0,0.862348,0.205882,0,-0.163636,0,0,0.0684576
4.12,0.5,0.294118,0,0,-0.3,-0.136364,0,0,0,0,0.3,0.231541,15.5292,0,-14.6955,0,0,0.862339,0.205882,0,-0.163636,0,0,0.0684594
4.13,0.5,0.294118,0,0,-0.3,-0.136364,0,0,0,0,0.3,0.231539,15.5292,0,-14.6955,0,0,0.86233,0.205882,0,-0.163636,0,0,0.0684612
4.14,0.5,0.294118,0,0,-0.3,-0.136364,0,0,0,0,0.3,0.231537,15.5292,0,-14.6955,0,0,0.86232,0.205882,0,-0.163636,0,0,0.068463
4.15,0.5,0.294118,0,0,-0.3,-0.136364,0,0,0,0,0.3,0.231535,15.5292,0,-14.6955,0,0,0.862311,0.205882,0,-0.163636,0,0,0.0684648
4.16,0.5,0.294118,0,0,-0.3,-0.136364,0,0,0,0,0.3,0.231533,15.5292,0,-14.6955,0,0,0.862302,0.205882,0,-0.163636,0,0,0.0684666
4.17,0.5,0.294118,0,0,-0.3,-0.136364,0,0,0,0,0.3,0.231532,15.5292,0,-14.6955,0,0,0.862293,0.205882,0,-0.163636,0,0,0.0684684
4.18,0.5,0.294118,0,0,-0.3,-0.136364,0,0,0,0,0.3,0.23153,15.5292,0,-14.6955,0,0,0.862284,0.205882,0,-0.163636,0,0,0.0684702
4.19,0.5,0.294118,0,0,-0.3,-0.136364,0,0,0,0,0.3,0.231528,15.5292,0,-14.6955,0,0,0.862274,0.205882,0,-0.163636,0,0,0.068472
4.2,0.5,0.294118,0,0,-0.3,-0.136364,0,0,0,0,0.3,0.231526,15.5292,0,-14.6955,0,0,0.862265,0.205882,0,-0.163636,0,0,0.0684738
4.21,0.5,0.294118,0,0,-0.3,-0.136364,0,0,0,0,0.3,0.231524,15.5292,0,-14.6955,0,0,0.862256,0.205882,0,-0.163636,0,0,0.0684756
4.22,0.5,0.294118,0,0,-0.3,-0.136364,0,0,0,0,0.3,0.231523,15.5292,0,-14.6955,0,0,0.862247,0.205882,0,-0.163636,0,0,0.0684774
4.23,0.5,0.294118,0,0,-0.3,-0.136364,0,0,0,0,0.3,0.231521,15.5292,0,-14.6955,0,0,0.862238,0.205882,0,-0.163636,0,0,0.0684792
4.24,0.5,0.294118,0,0,-0.3,-0.136364,0,0,0,0,0.3,0.231519,15.5292,0,-14.6955,0,0,0.862229,0.205882,0,-0.163636,0,0,0.068481
4.25,0.5,0.294118,0,0,-0.3,-0.136364,0,0,0,0,0.3,0.231517,15.5292,0,-14.6955,0,0,0.86222,0.205882,0,-0.163636,0,0,0.0684827
4.26,0.5,0.294118,0,0,-0.3,-0.136364,0,0,0,0,0.3,0.231516,15.5292,0,-14.6955,0,0,0.862211,0.205882,0,-0.163636,0,0,0.0684845
4.27,0.5,0.294118,0,0,-0.3,-0.136364,0,0,0,0,0.3,0.231514,15.5292,0,-14.6955,0,0,0.862202,0.205882,0,-0.163636,0,0,0.0684863
4.28,0.5,0.294118,0,0,-0.3,-0.136364,0,0,0,0,0.3,0.231512,15.5292,0,-14.6955,0,0,0.862193,0.205882,0,-0.163636,0,0,0.068488
4.29,0.5,0.294118,0,0,-0.3,-0.136364,0,0,0,0,0.3,0.23151,15.5292,0,-14.6955,0,0,0.862184,0.205882,0,-0.163636,0,0,0.0684898
4.3,0.5,0.294118,0,0,-0.3,-0.136364,0,0,0,0,0.3,0.231508,15.5292,0,-14.6955,0,0,0.862175,0.205882,0,-0.163636,0,0,0.0684915
4.31,0.5,0.294118,0,0,-0.3,-0.136364,0,0,0,0,0.3,0.231507,15.5292,0,-14.6955,0,0,0.862167,0.205882,0,-0.163636,0,0,0.0684933
4.32,0.5,0.294118,0,0,-0.3,-0.136364,0,0,0,0,0.3,0.231505,15.5292,0,-14.6955,0,0,0.862158,0.205882,0,-0.163636,0,0,0.068495
4.33,0.5,0.294118,0,0,-0.3,-0.136364,0,0,0,0,0.3,0.231503,15.5292,0,-14.6955,0,0,0.862149,0.205882,0,-0.163636,0,0,0.0684967
4.34,0.5,0.294118,0,0,-0.3,-0.136364,0,0,0,0,0.3,0.231502,15.5292,0,-14.6955,0,0,0.86214,0.205882,0,-0.163636,0,0,0.0684985
4.35,0.5,0.294118,0,0,-0.3,-0.136364,0,0,0,0,0.3,0.2315,15.5292,0,-14.6955,0,0,0.862131,0.205882,0,-0.163636,0,0,0.0685002
4.36,0.5,0.294118,0,0,-0.3,-0.136364,0,0,0,0,0.3,0.231498,15.5292,0,-14.6955,0,0,0.862122,0.205882,0,-0.163636,0,0,0.0685019
4.37,0.5,0.294118,0,0,-0.3,-0.136364,0,0,0,0,0.3,0.231496,15.5292,0,-14.6955,0,0,0.862114,0.205882,0,-0.163636,0,0,0.0685036
4.38,0.5,0.294118,0,0,-0.3,-0.136364,0,0,0,0,0.3,0.231495,15.5292,0,-14.6955,0,0,0.862105,0.205882,0,-0.163636,0,0,0.0685054
4.39,0.5,0.294118,0,0,-0.3,-0.136364,0,0,0,0,0.3,0.231493,15.5292,0,-14.6955,0,0,0.862096,0.205882,0,-0.163636,0,0,0.0685071
4.4,0.5,0.294118,0,0,-0.3,-0.136364,0,0,0,0,0.3,0.231491,15.5292,0,-14.6955,0,0,0.862088,0.205882,0,-0.163636,0,0,0.0685088
4.41,0.5,0.294118,0,0,-0.3,-0.136364,0,0,0,0,0.3,0.23149,15.5292,0,-14.6955,0,0,0.862079,0.205882,0,-0.163636,0,0,0.0685105
4.42,0.5,0.294118,0,0,-0.3,-0.136364,0,0,0,0,0.3,0.231488,15.5292,0,-14.6955,0,0,0.86207,0.205882,0,-0.163636,0,0,0.0685122
4.43,0.5,0.294118,0,0,-0.3,-0.136364,0,0,0,0,0.3,0.231486,15.5292,0,-14.6955,0,0,0.862062,0.205882,0,-0.163636,0,0,0.0685139
4.44,0.5,0.294118,0,0,-0.3,-0.136364,0,0,0,0,0.3,0.231484,15.5292,0,-14.6955,0,0,0.862053,0.205882,0,-0.163636,0,0,0.0685156
4.45,0.5,0.294118,0,0,-0.3,-0.136364,0,0,0,0,0.3,0.231483,15.5292,0,-14.6955,0,0,0.862044,0.205882,0,-0.163636,0,0,0.0685173
4.46,0.5,0.294118,0,0,-0.3,-0.136364,0,0,0,0,0.3,0.231481,15.5292,0,-14.6955,0,0,0.862036,0.205882,0,-0.163636,0,0,0.068519
4.47,0.5,0.294118,0,0,-0.3,-0.136364,0,0,0,0,0.3,0.231479,15.5292,0,-14.6955,0,0,0.862027,0.205882,0,-0.163636,0,0,0.0685206
4.48,0.5,0.294118,0,0,-0.3,-0.136364,0,0,0,0,0.3,0.231478,15.5292,0,-14.6955,0,0,0.862019,0.205882,0,-0.163636,0,0,0.0685223
4.49,0.5,0.294118,0,0,-0.3,-0.136364,0,0,0,0,0.3,0.231476,15.5292,0,-14.6955,0,0,0.86201,0.205882,0,-0.163636,0,0,0.068524
4.5,0.5,0.294118,0,0,-0.3,-0.136364,0,0,0,0,0.3,0.231474,15.5292,0,-14.6955,0,0,0.862002,0.205882,0,-0.163636,0,0,0.0685257
4.51,0.5,0.294118,0,0,-0.3,-0.136364,0,0,0,0,0.3,0.231473,15.5292,0,-14.6955,0,0,0.861993,0.205882,0,-0.163636,0,0,0.0685273
4.52,0.5,0.294118,0,0,-0.3,-0.136364,0,0,0,0,0.3,0.231471,15.5292,0,-14.6955,0,0,0.861985,0.205882,0,-0.163636,0,0,0.068529
4.53,0.5,0.294118,0,0,-0.3,-0.136364,0,0,0,0,0.3,0.231469,15.5292,0,-14.6955,0,0,0.861976,0.205882,0,-0.163636,0,0,0.0685306
4.54,0.5,0.294118,0,0,-0.3,-0.136364,0,0,0,0,0.3,0.231468,15.5292,0,-14.6955,0,0,0.861968,0.205882,0,-0.163636,0,0,0.0685323
4.55,0.5,0.294118,0,0,-0.3,-0.136364,0,0,0,0,0.3,0.231466,15.5292,0,-14.6955,0,0,0.86196,0.205882,0,-0.163636,0,0,0.0685339
4.56,0.5,0.294118,0,0,-0.3,-0.136364,0,0,0,0,0.3,0.231464,15.5292,0,-14.6955,0,0,0.861951,0.205882,0,-0.163636,0,0,0.0685356
4.57,0.5,0.294118,0,0,-0.3,-0.136364,0,0,0,0,0.3,0.231463,15.5292,0,-14.6955,0,0,0.861943,0.205882,0,-0.163636,0,0,0.0685372
4.58,0.5,0.294118,0,0,-0.3,-0.136364,0,0,0,0,0.3,0.231461,15.5292,0,-14.6955,0,0,0.861935,0.205882,0,-0.163636,0,0,0.0685389
4.59,0.5,0.294118,0,0,-0.3,-0.136364,0,0,0,0,0.3,0.23146,15.5292,0,-14.6955,0,0,0.861926,0.205882,0,-0.163636,0,0,0.0685405
4.6,0.5,0.294118,0,0,-0.3,-0.136364,0,0,0,0,0.3,0.231458,15.5292,0,-14.6955,0,0,0.861918,0.205882,0,-0.163636,0,0,0.0685421
4.61,0.5,0.294118,0,0,-0.3,-0.136364,0,0,0,0,0.3,0.231456,15.5292,0,-14.6955,0,0,0.86191,0.205882,0,-0.163636,0,0,0.0685438
4.62,0.5,0.294118,0,0,-0.3,-0.136364,0,0,0,0,0.3,0.231455,15.5292,0,-14.6955,0,0,0.861902,0.205882,0,-0.163636,0,0,0.0685454
4.63,0.5,0.294118,0,0,-0.3,-0.136364,0,0,0,0,0.3,0.231453,15.5292,0,-14.6955,0,0,0.861893,0.205882,0,-0.163636,0,0,0.068547
4.64,0.5,0.294118,0,0,-0.3,-0.136364,0,0,0,0,0.3,0.231451,15.5292,0,-14.6955,0,0,0.861885,0.205882,0,-0.163636,0,0,0.0685486
4.65,0.5,0.294118,0,0,-0.3,-0.136364,0,0,0,0,0.3,0.23145,15.5292,0,-14.6955,0,0,0.861877,0.205882,0,-0.163636,0,0,0.0685502
4.66,0.5,0.294118,0,0,-0.3,-0.136364,0,0,0,0,0.3,0.231448,15.5292,0,-14.6955,0,0,0.861869,0.205882,0,-0.163636,0,0,0.0685518
4.67,0.5,0.294118,0,0,-0.3,-0.136364,0,0,0,0,0.3,0.231447,15.5292,0,-14.6955,0,0,0.861861,0.205882,0,-0.163636,0,0,0.0685534
4.68,0.5,0.294118,0,0,-0.3,-0.136364,0,0,0,0,0.3,0.231445,15.5292,0,-14.6955,0,0,0.861852,0.205882,0,-0.163636,0,0,0.068555
4.69,0.5,0.294118,0,0,-0.3,-0.136364,0,0,0,0,0.3,0.231443,15.5292,0,-14.6955,0,0,0.861844,0.205882,0,-0.163636,0,0,0.0685566
4.7,0.5,0.294118,0,0,-0.3,-0.136364,0,0,0,0,0.3,0.231442,15.5292,0,-14.6955,0,0,0.861836,0.205882,0,-0.163636,0,0,0.0685582
4.71,0.5,0.294118,0,0,-0.3,-0.136364,0,0,0,0,0.3,0.23144,15.5292,0,-14.6955,0,0,0.861828,0.205882,0,-0.163636,0,0,0.0685598
4.72,0.5,0.294118,0,0,-0.3,-0.136364,0,0,0,0,0.3,0.231439,15.5292,0,-14.6955,0,0,0.86182,0.205882,0,-0.163636,0,0,0.0685614
4.73,0.5,0.294118,0,0,-0.3,-0.136364,0,0,0,0,0.3,0.231437,15.5292,0,-14.6955,0,0,0.861812,0.205882,0,-0.163636,0,0,0.068563
4.74,0.5,0.294118,0,0,-0.3,-0.136364,0,0,0,0,0.3,0.231435,15.5292,0,-14.6955,0,0,0.861804,0.205882,0,-0.163636,0,0,0.0685645
4.75,0.5,0.294118,0,0,-0.3,-0.136364,0,0,0,0,0.3,0.231434,15.5292,0,-14.6955,0,0,0.861796,0.205882,0,-0.163636,0,0,0.0685661
4.76,0.5,0.294118,0,0,-0.3,-0.136364,0,0,0,0,0.3,0.231432,15.5292,0,-14.6955,0,0,0.861788,0.205882,0,-0.163636,0,0,0.0685677
4.77,0.5,0.294118,0,0,-0.3,-0.136364,0,0,0,0,0.3,0.231431,15.5292,0,-14.6955,0,0,0.86178,0.205882,0,-0.163636,0,0,0.0685693
4.78,0.5,0.294118,0,0,-0.3,-0.136364,0,0,0,0,0.3,0.231429,15.5292,0,-14.6955,0,0,0.861772,0.205882,0,-0.163636,0,0,0.0685708
4.79,0.5,0.294118,0,0,-0.3,-0.136364,0,0,0,0,0.3,0.231428,15.5292,0,-14.6955,0,0,0.861764,0.205882,0,-0.163636,0,0,0.0685724
